RouteId,RouteVarId,StopId,Code,Name,Lat,Lng,Zone,Ward,StopType,Street,Status
1,1,33,BX 06,Công Trường Mê Linh,10.77679,106.705856,Quận 1,Phường Bến Nghé,Bến xe,Thi Sách,Đang khai thác
1,1,79,Q1 031,Bến Bạch Đằng,10.773299,106.706359,Quận 1,,Trụ dừng,Tôn Đức Thắng,Đang khai thác
1,1,76,Q1 020,Cục Hải Quan Thành Phố,10.770885,106.705549,Quận 1,Phường Bến Nghé,Nhà chờ,Hàm Nghi,Đang khai thác
1,1,3691,Q1 193,Chợ Cũ,10.771006,106.703108,Quận 1,Phường Bến Nghé,Nhà chờ,Hàm Nghi,Đang khai thác
1,1,2028,Q1 194,Trường Cao Thắng,10.771043,106.701853,Quận 1,Phường Bến Nghé,Nhà chờ,Hàm Nghi,Đang khai thác
1,1,4223,Q1 102,Trạm Trung chuyển trên đường Hàm Nghi,10.771043,106.699514,Quận 1,Phường Bến Thành,Nhà chờ,Hàm Nghi,Đang khai thác
1,1,120,Q1 124,Trường Ernst Thalmann,10.768772,106.695923,Quận 1,,Nhà chờ,Trần Hưng Đạo,Đang khai thác
1,1,121,Q1 125,KTX Trần Hưng Đạo,10.767363,106.694695,Quận 1,,Nhà chờ,Trần Hưng Đạo,Đang khai thác
1,1,122,Q1 126,Rạp Hưng Đạo,10.765832,106.693375,Quận 1,,Nhà chờ,Trần Hưng Đạo,Đang khai thác
1,1,123,Q1 127,Bệnh viện Răng Hàm Mặt,10.763918,106.691696,Quận 1,,Nhà chờ,Trần Hưng Đạo,Đang khai thác
1,1,124,Q1 128,Trần Đình Xu,10.762262,106.690247,Quận 1,,Trụ dừng,Trần Hưng Đạo,Đang khai thác
1,1,125,Q1 129,Tổng Cty Samco,10.759409,106.687798,Quận 1,,Nhà chờ,Trần Hưng Đạo,Đang khai thác
1,1,126,Q1 130,Chợ Nanci,10.757467,106.686035,Quận 1,,Trụ dừng,Trần Hưng Đạo,Đang khai thác
1,1,127,Q5 083,Nguyễn Biểu,10.755887,106.68283,Quận 5,,Trụ dừng,Trần Hưng Đạo,Đang khai thác
1,1,128,Q5 084,Trường Cao đẳng Kinh tế Đối ngoại,10.755623,106.681833,Quận 5,,Nhà chờ,Trần Hưng Đạo,Đang khai thác
1,1,129,Q5 085,Trần Bình Trọng,10.755064,106.679794,Quận 5,,Trụ dừng,Trần Hưng Đạo,Đang khai thác
1,1,130,Q5 086,Bệnh viện Chấn thương Chỉnh hình,10.754537,106.677847,Quận 5,,Nhà chờ,Trần Hưng Đạo,Đang khai thác
1,1,131,Q5 087,Rạp Đồng Tháp,10.753984,106.675825,Quận 5,,Trụ dừng,Trần Hưng Đạo,Đang khai thác
1,1,134,Q5 088,Rạp Đống Đa,10.753573,106.674237,Quận 5,,Trụ dừng,Trần Hưng Đạo,Đang khai thác
1,1,132,Q5 089,Đồng Khánh,10.752983,106.67149,Quận 5,,Trụ dừng,Trần Hưng Đạo,Đang khai thác
1,1,14,Q5 099,Nhà Văn hóa Quận 5,10.753025,106.668588,Quận 5,,Trụ dừng,Trần Phú,Đang khai thác
1,1,136,Q5 090,Ngô Quyền,10.752477,106.666174,Quận 5,,Biển treo,Trần Hưng Đạo,Đang khai thác
1,1,133,Q5 091,Tản Đà,10.752292,106.663706,Quận 5,,Trụ dừng,Trần Hưng Đạo,Đang khai thác
1,1,135,Q5 092,Triệu Quang Phục,10.75206,106.660536,Quận 5,Phường 11,Trụ dừng,Trần Hưng Đạo,Đang khai thác
1,1,137,Q5 014,Bưu điện Quận 5,10.751381,106.658894,Quận 5,,Ô sơn,Châu Văn Liêm,Đang khai thác
1,1,138,Q5 015,Hải Thượng Lãn Ông,10.750948,106.658358,Quận 5,,Trụ dừng,Hải Thượng Lãn Ông,Đang khai thác
1,1,139,Q5 102,Chợ Kim Biên,10.751128,106.655086,Quận 5,,Trụ dừng,Trang Tử,Đang khai thác
1,1,8,BX14,Bến xe buýt Chợ Lớn,10.751253,106.652565,Quận 5,,Bến xe,Lê Quang Sung,Đang khai thác
1,2,8,BX14,Bến xe buýt Chợ Lớn,10.751253,106.652565,Quận 5,,Bến xe,Lê Quang Sung,Đang khai thác
1,2,2393,Q6 096,Tháp Mười,10.750326,106.653036,Quận 6,,Trụ dừng,Tháp Mười,Đang khai thác
1,2,2,Q5 016,Chợ Kim Biên,10.750732,106.655075,Quận 5,,Trụ dừng,Hải Thượng Lãn Ông,Đang khai thác
1,2,3,Q5 011,Bưu điện Quận 5,10.751368,106.659203,Quận 5,,Ô sơn,Châu Văn Liêm,Đang khai thác
1,2,5,Q5 012,Rạp Đại Quang,10.752566,106.658937,Quận 5,,Nhà chờ,Châu Văn Liêm,Đang khai thác
1,2,4,Q5 055,Lương Nhữ Học,10.752962,106.660418,Quận 5,,Trụ dừng,Nguyễn Trãi,Đang khai thác
1,2,7,Q5 056,Triệu Quang Phục,10.753088,106.662081,Quận 5,,Trụ dừng,Nguyễn Trãi,Đang khai thác
1,2,9,Q5 057,Đại học Sư phạm Thể dục thể thao,10.753341,106.663486,Quận 5,,Nhà chờ,Nguyễn Trãi,Đang khai thác
1,2,12,Q5 058,Siêu thị Điện máy Chợ Lớn,10.753626,106.664913,Quận 5,,Trụ dừng,Nguyễn Trãi,Đang khai thác
1,2,6,Q5 059,Ngô Quyền,10.754,106.666882,Quận 5,,Trụ dừng,Nguyễn Trãi,Đang khai thác
1,2,10,Q5 060,Chung cư Nguyễn Trãi,10.754337,106.668572,Quận 5,,Trụ dừng,Nguyễn Trãi,Đang khai thác
1,2,3166,Q5 061,Bệnh viện Nguyễn Tri Phương,10.754638,106.670149,Quận 5,,Nhà chờ,Nguyễn Trãi,Đang khai thác
1,2,3519,Q5 062,Trần Phú,10.755212,106.673014,Quận 5,,Ô sơn,Nguyễn Trãi,Đang khai thác
1,2,3521,Q5 063,Bệnh viện Nguyễn Trãi,10.755839,106.675084,Quận 5,,Trụ dừng,Nguyễn Trãi,Đang khai thác
1,2,15,Q5 096,Bệnh viện Chấn Thương Chỉnh hình,10.754421,106.678271,Quận 5,,Nhà chờ,Trần Hưng Đạo,Đang khai thác
1,2,19,Q5 097,Trần Bình Trọng,10.754912,106.680041,Quận 5,,Trụ dừng,Trần Hưng Đạo,Đang khai thác
1,2,20,Q5 098,Nguyễn Biểu,10.756066,106.68437,Quận 5,,Trụ dừng,Trần Hưng Đạo,Đang khai thác
1,2,18,Q1 131,Chợ Nanci,10.75699,106.685883,Quận 1,,Trụ dừng,Trần Hưng Đạo,Đang khai thác
1,2,22,Q1 132,Tổng Cty Samco,10.759734,106.688254,Quận 1,,Nhà chờ,Trần Hưng Đạo,Đang khai thác
1,2,21,Q1 133,Sở PCCC,10.760656,106.689096,Quận 1,,Nhà chờ,Trần Hưng Đạo,Đang khai thác
1,2,23,Q1 134,Hồ Hảo Hớn,10.762395,106.690636,Quận 1,,Trụ dừng,Trần Hưng Đạo,Đang khai thác
1,2,24,Q1 135,Bệnh Viện Răng Hàm Mặt,10.763567,106.691612,Quận 1,Phường Cô Giang,Nhà chờ,Trần Hưng Đạo,Đang khai thác
1,2,25,Q1 136,Rạp Trần Hưng Đạo,10.76483,106.692722,Quận 1,Phường Cô Giang,Nhà chờ,Trần Hưng Đạo,Đang khai thác
1,2,26,Q1 137,KTX Trần Hưng Đạo,10.767064,106.694824,Quận 1,Phường Cầu Ông Lãnh,Nhà chờ,Trần Hưng Đạo,Đang khai thác
1,2,27,Q1 138,Nguyễn Kim,10.768327,106.695847,Quận 1,,Nhà chờ,Trần Hưng Đạo,Đang khai thác
1,2,7266,Q1 180,Trạm Trung chuyển trên đường Hàm Nghi,10.770896,106.700807,Quận 1,Phường Nguyễn Thái Bình,Nhà chờ,Hàm Nghi,Đang khai thác
1,2,7693,Q1 1950,Nam Kỳ Khởi Nghĩa,10.770875,106.701354,Quận 1,Phường Nguyễn Thái Bình,Nhà chờ,Hàm Nghi,Đang khai thác
1,2,1256,Q1 195,Chợ Cũ,10.770811,106.701998,Quận 1,Phường Nguyễn Thái Bình,Nhà chờ,Hàm Nghi,Đang khai thác
1,2,7588,Q1 200,Giao lộ Hàm Nghi - Tôn Thất Đạm,10.77078,106.703038,Quận 1,Phường Nguyễn Thái Bình,Nhà chờ,Hàm Nghi,Đang khai thác
1,2,32,Q1 017,Hồ Tùng Mậu,10.770722,106.704074,Quận 1,Phường Nguyễn Thái Bình,Nhà chờ,Hàm Nghi,Đang khai thác
1,2,31,Q1 024,Bến Bạch Đằng,10.774094,106.706654,Quận 1,,Nhà chờ,Tôn Đức Thắng,Đang khai thác
1,2,34,Q1 057,Công Trường Mê Linh,10.775997,106.705822,Quận 1,,Nhà chờ,Hai Bà Trưng,Đang khai thác
1,2,33,BX 06,Công Trường Mê Linh,10.77679,106.705856,Quận 1,Phường Bến Nghé,Bến xe,Thi Sách,Đang khai thác
10,1,7829,BX92,Bến xe buýt ĐH Quốc gia TPHCM (mới),10.874479,106.807659,TP. Thủ Đức - KV3,,Bến xe,Nguyễn Hiền,Đang khai thác
10,1,7650,QTD 271,Bến xe buýt Khu A ĐHQG,10.87362,106.803042,TP. Thủ Đức - KV3,Phường Linh Trung,Trụ dừng,Quảng Trường Sáng Tạo,Đang khai thác
10,1,7645,QTD 248,Nhà Văn hoá sinh viên,10.874832,106.800016,TP. Thủ Đức - KV3,Phường Linh Trung,Nhà chờ,Quảng Trường Sáng Tạo,Đang khai thác
10,1,7624,QTD 255,Đại học Quốc tế (đối diện cổng QTST),10.876476,106.80257,TP. Thủ Đức - KV3,Phường Linh Trung,Nhà chờ,Quảng Trường Sáng Tạo,Đang khai thác
10,1,7647,QTD 252,KTX Khu A ĐH Quốc Gia TPHCM,10.875638,106.804914,TP. Thủ Đức - KV3,Phường Linh Trung,Nhà chờ,Quảng Trường Sáng Tạo,Đang khai thác
10,1,7651,QTD 272,Vành đai ĐHQG TPHCM,10.874619,106.806271,TP. Thủ Đức - KV3,,Trụ dừng,Đường 621,Đang khai thác
10,1,572,QTD 175,Đại học An Ninh Nhân Dân,10.871402,106.806657,TP. Thủ Đức - KV3,,Ô sơn,Quốc lộ 1,Đang khai thác
10,1,576,QTD 176,Trường giáo dục Quốc phòng,10.869172,106.804727,TP. Thủ Đức - KV3,,Trụ dừng,Quốc lộ 1,Đang khai thác
10,1,574,QTD 177,Khu DL Suối Tiên,10.86605,106.801116,TP. Thủ Đức - KV3,Phường Linh Trung,Nhà chờ,Quốc lộ 1,Đang khai thác
10,1,398,QTD 074,Khu Công nghệ cao Q9,10.860218,106.791138,TP. Thủ Đức - KV3,Phường Linh Trung,Trụ dừng,Xa Lộ Hà Nội,Đang khai thác
10,1,4392,QTD 075,Xa Lộ Hà Nội,10.858716,106.788633,TP. Thủ Đức - KV3,Phường Linh Trung,Nhà chờ,Xa Lộ Hà Nội,Đang khai thác
10,1,401,QTD 076,Công ty Cocacola,10.856483,106.784964,TP. Thủ Đức - KV3,Phường Linh Trung,Nhà chờ,Xa Lộ Hà Nội,Đang khai thác
10,1,1113,QTD 077,Ngã tư Thủ Đức,10.84828,106.77299,TP. Thủ Đức - KV3,Phường Bình Thọ,Nhà chờ,Võ Nguyên Giáp,Đang khai thác
10,1,8094,TPTĐ 224,Ga metro Thủ Đức,10.845622,106.771394,TP. Thủ Đức - KV3,Phường Bình Thọ,Nhà chờ,Xa Lộ Hà Nội,Đang khai thác
10,1,1111,QTD 078,Betong Hải Âu,10.844297,106.77063,TP. Thủ Đức - KV3,Phường Bình Thọ,Trụ dừng,Võ Nguyên Giáp,Đang khai thác
10,1,1112,QTD 079,UBND Quận 9,10.840745,106.768607,TP. Thủ Đức - KV3,Phường Bình Thọ,Nhà chờ,Võ Nguyên Giáp,Đang khai thác
10,1,410,QTD 080,Ngã 4 Bình Thái,10.834945,106.765244,TP. Thủ Đức - KV3,Phường Trường Thọ,Nhà chờ,Võ Nguyên Giáp,Đang khai thác
10,1,413,QTD 081,Công ty truyền tải điện 4,10.831957,106.763635,TP. Thủ Đức - KV3,Phường Trường Thọ,Nhà chờ,Võ Nguyên Giáp,Đang khai thác
10,1,412,QTD 082,Ngã 4 Tây Hòa (RMK),10.825366,106.759998,TP. Thủ Đức - KV3,Phường Trường Thọ,Nhà chờ,Võ Nguyên Giáp,Đang khai thác
10,1,414,QTD 083,Xi măng Hà Tiên,10.820576,106.758142,TP. Thủ Đức - KV3,Phường Trường Thọ,Nhà chờ,Võ Nguyên Giáp,Đang khai thác
10,1,415,Q2 075,Cát Lái,10.802925,106.747948,TP. Thủ Đức - KV1,,Nhà chờ,Võ Nguyên Giáp,Đang khai thác
10,1,416,Q2 076,Metro Quận 2,10.802134,106.7434,TP. Thủ Đức - KV1,,Nhà chờ,Võ Nguyên Giáp,Đang khai thác
10,1,417,Q2 077,Thảo Điền,10.801309,106.738762,TP. Thủ Đức - KV1,Phường Thảo Điền,Nhà chờ,Võ Nguyên Giáp,Đang khai thác
10,1,418,Q2 078,Cầu Đen,10.800451,106.73436,TP. Thủ Đức - KV1,Phường Thảo Điền,Nhà chờ,Võ Nguyên Giáp,Đang khai thác
10,1,419,QBTH 056,Cầu Sài Gòn,10.798893,106.719571,Quận Bình Thạnh,,Trụ dừng,Điện Biên Phủ,Đang khai thác
10,1,420,QBTH 055,Khu Du lịch Văn Thánh,10.800274,106.717227,Quận Bình Thạnh,,Nhà chờ,Điện Biên Phủ,Đang khai thác
10,1,421,QBTH 054,Đại học Hutech,10.801228,106.714856,Quận Bình Thạnh,,Nhà chờ,Điện Biên Phủ,Đang khai thác
10,1,423,QBTH 053,Cây xăng dầu,10.801697,106.712834,Quận Bình Thạnh,,Trụ dừng,Điện Biên Phủ,Đang khai thác
10,1,1873,QBTH 052,Vòng xoay Hàng Xanh,10.80146,106.709969,Quận Bình Thạnh,,Nhà chờ,Điện Biên Phủ,Đang khai thác
10,1,1872,QBTH 051,Đại học Hồng Bàng,10.799747,106.706268,Quận Bình Thạnh,,Nhà chờ,Điện Biên Phủ,Đang khai thác
10,1,1875,QBTH 050,Trạm Điện Nguyễn Cửu Vân,10.796775,106.703247,Quận Bình Thạnh,,Nhà chờ,Điện Biên Phủ,Đang khai thác
10,1,1874,QBTH 049,Cầu Điện Biên Phủ,10.795089,106.701654,Quận Bình Thạnh,Phường 15,Nhà chờ,Điện Biên Phủ,Đang khai thác
10,1,726,Q1 073,Đền Trần Hưng Đạo,10.791369,106.695238,Quận 1,,Trụ dừng,Võ Thị Sáu,Đang khai thác
10,1,2111,Q1 074,Công viên Lê Văn Tám,10.788896,106.692818,Quận 1,,Nhà chờ,Võ Thị Sáu,Đang khai thác
10,1,3176,Q3 100,Phạm Ngọc Thạch,10.786916,106.690918,Quận 3,,Trụ dừng,Võ Thị Sáu,Đang khai thác
10,1,246,Q3 101,Nhà thiếu nhi thành phố,10.785583,106.689613,Quận 3,,Nhà chờ,Võ Thị Sáu,Đang khai thác
10,1,2491,Q3 102,Bảo tàng Phụ Nữ,10.783533,106.687514,Quận 3,,Trụ dừng,Võ Thị Sáu,Đang khai thác
10,1,727,Q3 103,Trần Quốc Thảo,10.782294,106.686242,Quận 3,,Trụ dừng,Võ Thị Sáu,Đang khai thác
10,1,2708,Q3 104,Ngã sáu Dân Chủ,10.778584,106.682616,Quận 3,,Nhà chờ,Võ Thị Sáu,Đang khai thác
10,1,568,Q10 001,Siêu thị Maximark,10.777162,106.680771,Quận 10,,Trụ dừng,Đường 3/2,Đang khai thác
10,1,563,Q10 002,Bệnh viện Bình Dân,10.774785,106.678947,Quận 10,,Trụ dừng,Đường 3/2,Đang khai thác
10,1,95,Q10 003,Học viện Hành chính Quốc gia,10.773457,106.676951,Quận 10,,Nhà chờ,Đường 3/2,Đang khai thác
10,1,94,Q10 004,Học viện Hành chính Quốc gia,10.772661,106.675701,Quận 10,,Nhà chờ,Đường 3/2,Đang khai thác
10,1,97,Q10 005,Nhà hát Hòa Bình,10.771712,106.674202,Quận 10,,Nhà chờ,Đường 3/2,Đang khai thác
10,1,96,Q10 006,Nhà thờ Vinh Sơn,10.770521,106.67215,Quận 10,,Trụ dừng,Đường 3/2,Đang khai thác
10,1,99,Q10 007,Bệnh viện Nhi Đồng 1,10.769578,106.670364,Quận 10,,Trụ dừng,Đường 3/2,Đang khai thác
10,1,564,Q10 075,Học viện Quân y,10.766769,106.667259,Quận 10,,Trụ dừng,Nguyễn Tri Phương,Đang khai thác
10,1,567,Q10 076,Chợ Nhật Tảo,10.764991,106.667664,Quận 10,,Trụ dừng,Nguyễn Tri Phương,Đang khai thác
10,1,570,Q10 077,Trường Hoàng Văn Thụ,10.763371,106.668015,Quận 10,,Trụ dừng,Nguyễn Tri Phương,Đang khai thác
10,1,571,Q10 078,Đại học kinh tế,10.761049,106.668488,Quận 10,,Trụ dừng,Nguyễn Tri Phương,Đang khai thác
10,1,569,Q5 036,Ngô Gia Tự,10.758801,106.668062,Quận 5,,Nhà chờ,Ngô Gia Tự,Đang khai thác
10,1,573,Q5 035,Trung tâm giáo dục thường xuyên,10.757331,106.667016,Quận 5,,Nhà chờ,Ngô Gia Tự,Đang khai thác
10,1,433,Q5 017,Bệnh viện Phạm Ngọc Thạch,10.755897,106.664511,Quận 5,,Nhà chờ,Hồng Bàng,Đang khai thác
10,1,434,Q5 018,Hùng Vương Plaza,10.755196,106.661072,Quận 5,,Nhà chờ,Hồng Bàng,Đang khai thác
10,1,436,Q5 019,Bệnh viện Chợ Rẫy,10.754875,106.659501,Quận 5,,Trụ dừng,Hồng Bàng,Đang khai thác
10,1,397,Q5 013,Rạp Đại Quang,10.752445,106.658792,Quận 5,,Nhà chờ,Châu Văn Liêm,Đang khai thác
10,1,137,Q5 014,Bưu điện Quận 5,10.751381,106.658894,Quận 5,,Ô sơn,Châu Văn Liêm,Đang khai thác
10,1,138,Q5 015,Hải Thượng Lãn Ông,10.750948,106.658358,Quận 5,,Trụ dừng,Hải Thượng Lãn Ông,Đang khai thác
10,1,139,Q5 102,Chợ Kim Biên,10.751128,106.655086,Quận 5,,Trụ dừng,Trang Tử,Đang khai thác
10,1,4773,Q6 052,Cây xăng,10.751112,106.652538,Quận 6,Phường 01,Ô sơn,Lê Quang Sung,Đang khai thác
10,1,1778,Q6 023,Ngân hàng Thương Tín,10.749699,106.648241,Quận 6,,Trụ dừng,Hậu Giang,Đang khai thác
10,1,728,Q6 024,CoopMart ,10.749815,106.643198,Quận 6,,Trụ dừng,Hậu Giang,Đang khai thác
10,1,111,Q6 025,Cầu Hậu Giang,10.749736,106.641503,Quận 6,,Trụ dừng,Hậu Giang,Đang khai thác
10,1,110,Q6 026,Chợ Hoa,10.748714,106.637437,Quận 6,,Trụ dừng,Hậu Giang,Đang khai thác
10,1,113,Q6 027,Nguyễn Văn Luông,10.748039,106.634663,Quận 6,,Trụ dừng,Hậu Giang,Đang khai thác
10,1,112,Q6 028,Bình Phú,10.747697,106.633312,Quận 6,,Biển treo,Hậu Giang,Đang khai thác
10,1,114,Q6 029,Đồng Quê,10.746511,106.628382,Quận 6,,Biển treo,Hậu Giang,Đang khai thác
10,1,115,Q6 030,Mũi Tàu Phú Lâm,10.745536,106.624686,Quận 6,,Trụ dừng,Hậu Giang,Đang khai thác
10,1,117,QBT 011,Vòng xoay Kinh Dương Vương,10.744746,106.622475,Quận Bình Tân,Phường An Lạc,Trụ dừng,Kinh Dương Vương,Đang khai thác
10,1,116,QBT 012,Bến xe Miền Tây,10.741973,106.619096,Quận Bình Tân,Phường An Lạc,Trụ dừng,Kinh Dương Vương,Đang khai thác
10,1,4150,QBT 013,"428, Kinh Dương Vương",10.741383,106.618377,Quận Bình Tân,,Ô sơn,Kinh Dương Vương,Đang khai thác
10,1,725,BX 46,Bến xe Miền Tây,10.739486,106.619438,Quận Bình Tân,,Bến xe,Kinh Dương Vương,Đang khai thác
10,2,725,BX 46,Bến xe Miền Tây,10.739486,106.619438,Quận Bình Tân,,Bến xe,Kinh Dương Vương,Đang khai thác
10,2,4149,QBT 009,Chợ An Lạc ,10.743396,106.62136,Quận Bình Tân,Phường An Lạc,Trụ dừng,Kinh Dương Vương,Đang khai thác
10,2,140,QBT 010,Kinh Dương Vương,10.744919,106.623162,Quận Bình Tân,Phường An Lạc,Trụ dừng,Kinh Dương Vương,Đang khai thác
10,2,141,Q6 031,Mũi Tàu Phú Lâm,10.745362,106.624466,Quận 6,,Biển treo,Hậu Giang,Đang khai thác
10,2,143,Q6 032,Đồng Quê,10.746311,106.628092,Quận 6,,Biển treo,Hậu Giang,Đang khai thác
10,2,145,Q6 033,Bình Phú,10.747623,106.633526,Quận 6,,Biển treo,Hậu Giang,Đang khai thác
10,2,142,Q6 034,Nguyễn Văn Luông,10.74826,106.636192,Quận 6,,Trụ dừng,Hậu Giang,Đang khai thác
10,2,144,Q6 035,Chợ Hoa,10.748756,106.638204,Quận 6,,Trụ dừng,Hậu Giang,Đang khai thác
10,2,729,Q6 036,CoopMart,10.74971,106.64283,Quận 6,,Trụ dừng,Hậu Giang,Đang khai thác
10,2,2390,Q6 037,Ngân hàng Thương Tín,10.749552,106.648101,Quận 6,,Trụ dừng,Hậu Giang,Đang khai thác
10,2,1,Q6 095,Chu Văn An,10.750232,106.652554,Quận 6,,Trụ dừng,Tháp Mười,Đang khai thác
10,2,2393,Q6 096,Tháp Mười,10.750326,106.653036,Quận 6,,Trụ dừng,Tháp Mười,Đang khai thác
10,2,2,Q5 016,Chợ Kim Biên,10.750732,106.655075,Quận 5,,Trụ dừng,Hải Thượng Lãn Ông,Đang khai thác
10,2,3,Q5 011,Bưu điện Quận 5,10.751368,106.659203,Quận 5,,Ô sơn,Châu Văn Liêm,Đang khai thác
10,2,5,Q5 012,Rạp Đại Quang,10.752566,106.658937,Quận 5,,Nhà chờ,Châu Văn Liêm,Đang khai thác
10,2,437,Q5 025,Bệnh viện Chợ Rẫy,10.754553,106.659232,Quận 5,,Trụ dừng,Hồng Bàng,Đang khai thác
10,2,439,Q5 026,Đại học Y Dược,10.75536,106.663191,Quận 5,,Nhà chờ,Hồng Bàng,Đang khai thác
10,2,440,Q5 027,Bệnh viện Đại học Y Dược,10.755671,106.664683,Quận 5,,Nhà chờ,Hồng Bàng,Đang khai thác
10,2,432,Q5 068,Công viên Văn Lang,10.757151,106.669613,Quận 5,,Trụ dừng,Nguyễn Tri Phương,Đang khai thác
10,2,441,Q5 069,Trường Trần Khai Nguyên,10.758706,106.66928,Quận 5,,Ô sơn,Nguyễn Tri Phương,Đang khai thác
10,2,442,Q10 071,Đại học Kinh tế,10.761386,106.668564,Quận 10,,Trụ dừng,Nguyễn Tri Phương,Đang khai thác
10,2,444,Q10 072,Trường Hoàng Văn Thụ,10.763073,106.668213,Quận 10,,Nhà chờ,Nguyễn Tri Phương,Đang khai thác
10,2,443,Q10 073,Chợ Nhật Tảo,10.765397,106.667702,Quận 10,,Trụ dừng,Nguyễn Tri Phương,Đang khai thác
10,2,446,Q10 074,Học viện Quân y,10.767052,106.667313,Quận 10,,Trụ dừng,Nguyễn Tri Phương,Đang khai thác
10,2,1397,Q10 031,Bệnh viện Nhi Đồng 1,10.767765,106.67038,Quận 10,,Trụ dừng,Lý Thái Tổ,Đang khai thác
10,2,1398,Q10 032,Chợ Phường 10,10.767623,106.673357,Quận 10,,Trụ dừng,Lý Thái Tổ,Đang khai thác
10,2,1909,Q3 020,Ngã 7 Lý Thái Tổ,10.768703,106.675224,Quận 3,Phường 01,Trụ dừng,Điện Biên Phủ,Đang khai thác
10,2,92,Q3 021,Cao Thắng,10.771164,106.67738,Quận 3,Phường 01,Ô sơn,Điện Biên Phủ,Đang khai thác
10,2,1911,Q3 022,Cư Xá Đô Thành,10.773248,106.67981,Quận 3,Phường 04,Trụ dừng,Điện Biên Phủ,Đang khai thác
10,2,1912,Q3 023,Bệnh viện Bình Dân,10.774641,106.68145,Quận 3,,Nhà chờ,Điện Biên Phủ,Đang khai thác
10,2,731,Q3 024,Cách Mạng tháng 8,10.777009,106.684145,Quận 3,,Nhà chờ,Điện Biên Phủ,Đang khai thác
10,2,1913,Q3 025,Bệnh viện Mắt TPHCM,10.778255,106.685471,Quận 3,Phường 07,Ô sơn,Điện Biên Phủ,Đang khai thác
10,2,1917,Q3 026,Sở Khoa học và Công nghệ,10.780286,106.687621,Quận 3,,Nhà chờ,Điện Biên Phủ,Đang khai thác
10,2,1914,Q3 027,Trường Marie Curie,10.782872,106.690369,Quận 3,,Nhà chờ,Điện Biên Phủ,Đang khai thác
10,2,1920,Q3 028,Phạm Ngọc Thạch,10.784965,106.692375,Quận 3,Phường 06,Trụ dừng,Điện Biên Phủ,Đang khai thác
10,2,1915,Q1 008,Công Viên Lê Văn Tám,10.786934,106.694313,Quận 1,,Trụ dừng,Điện Biên Phủ,Đang khai thác
10,2,1924,Q1 009,Đinh Tiên Hoàng,10.789477,106.696783,Quận 1,,Trụ dừng,Điện Biên Phủ,Đang khai thác
10,2,730,QBTH 063,Cầu Điện Biên Phủ,10.795115,106.702518,Quận Bình Thạnh,,Trụ dừng,Điện Biên Phủ,Đang khai thác
10,2,1916,QBTH 062,Trạm Điện Nguyễn Cửu Vân,10.797286,106.704567,Quận Bình Thạnh,,Nhà chờ,Điện Biên Phủ,Đang khai thác
10,2,1918,QBTH 061,Đại học Hồng Bàng,10.799873,106.707528,Quận Bình Thạnh,,Nhà chờ,Điện Biên Phủ,Đang khai thác
10,2,1925,QBTH 060,Vòng xoay Hàng Xanh,10.80108,106.710269,Quận Bình Thạnh,,Nhà chờ,Điện Biên Phủ,Đang khai thác
10,2,476,QBTH 059,Đại học Hutech,10.800827,106.714255,Quận Bình Thạnh,,Ô sơn,Điện Biên Phủ,Đang khai thác
10,2,473,QBTH 058,Khu Du lịch Văn Thánh,10.799531,106.717404,Quận Bình Thạnh,,Nhà chờ,Điện Biên Phủ,Đang khai thác
10,2,475,QBTH 057,Cầu Sài Gòn,10.798525,106.719496,Quận Bình Thạnh,,Trụ dừng,Điện Biên Phủ,Đang khai thác
10,2,477,Q2 071,Cầu Đen,10.799978,106.7342,TP. Thủ Đức - KV1,Phường An Phú,Nhà chờ,Võ Nguyên Giáp,Đang khai thác
10,2,478,Q2 072,Thảo Điền,10.800838,106.738899,TP. Thủ Đức - KV1,,Nhà chờ,Võ Nguyên Giáp,Đang khai thác
10,2,480,Q2 073,Metro Quận 2,10.801532,106.742383,TP. Thủ Đức - KV1,,Nhà chờ,Võ Nguyên Giáp,Đang khai thác
10,2,479,Q2 074,Cát Lái,10.802592,106.748089,TP. Thủ Đức - KV1,,Nhà chờ,Võ Nguyên Giáp,Đang khai thác
10,2,482,Q9 210,Xi măng hà tiên - trạm thu phí,10.820865,106.758655,TP. Thủ Đức - KV2,Phường Phước Long A,Nhà chờ,Võ Nguyên Giáp,Đang khai thác
10,2,481,Q9 211,Ngã 4 Tây Hòa (RMK),10.825972,106.760775,TP. Thủ Đức - KV2,Phường Phước Long A,Nhà chờ,Võ Nguyên Giáp,Đang khai thác
10,2,485,Q9 212,Trạm xây dựng,10.829955,106.76312,TP. Thủ Đức - KV2,Phường Phước Long A,Nhà chờ,Võ Nguyên Giáp,Đang khai thác
10,2,483,Q9 213,Khu QLGTDT số 2,10.831921,106.76415,TP. Thủ Đức - KV2,,Nhà chờ,Võ Nguyên Giáp,Đang khai thác
10,2,1025,Q9 214,Ngã 4 Bình Thái,10.836162,106.76666,TP. Thủ Đức - KV2,Phường Phước Long B,Nhà chờ,Võ Nguyên Giáp,Đang khai thác
10,2,1030,Q9 215,UBND quận 9,10.840466,106.769074,TP. Thủ Đức - KV2,Phường Hiệp Phú,Nhà chờ,Võ Nguyên Giáp,Đang khai thác
10,2,1026,Q9 216,Bê tông Hải Âu,10.843834,106.77079,TP. Thủ Đức - KV2,Phường Hiệp Phú,Trụ dừng,Võ Nguyên Giáp,Đang khai thác
10,2,8095,TPTĐ 225,Ga metro Thủ Đức,10.845801,106.772063,TP. Thủ Đức - KV2,Phường Hiệp Phú,Nhà chờ,Xa Lộ Hà Nội,Đang khai thác
10,2,1028,Q9 217,Ngã 4 Thủ Đức,10.847142,106.772974,TP. Thủ Đức - KV2,Phường Hiệp Phú,Trụ dừng,Võ Nguyên Giáp,Đang khai thác
10,2,494,Q9 218,Công an Quận 9,10.849966,106.775066,TP. Thủ Đức - KV2,,Nhà chờ,Xa Lộ Hà Nội,Đang khai thác
10,2,498,Q9 219,Chợ chiều,10.853511,106.780474,TP. Thủ Đức - KV2,Phường Hiệp Phú,Trụ dừng,Xa Lộ Hà Nội,Đang khai thác
10,2,7159,Q9 281,Trạm Hutech - Khu Công nghệ cao,10.856191,106.785523,TP. Thủ Đức - KV2,Phường Hiệp Phú,Nhà chờ,Song hành phải Xa Lộ Hà Nội,Đang khai thác
10,2,495,Q9 220,Khu Công nghệ cao quận 9,10.858511,106.788869,TP. Thủ Đức - KV2,,Nhà chờ,Xa Lộ Hà Nội,Đang khai thác
10,2,536,Q9 221,Cầu Vượt Trạm 2,10.863595,106.797538,TP. Thủ Đức - KV2,,Nhà chờ,Quốc lộ 1,Đang khai thác
10,2,537,Q9 223,Suối Tiên,10.866113,106.802081,TP. Thủ Đức - KV2,Phường Tân Phú,Trụ dừng,Quốc lộ 1,Đang khai thác
10,2,1919,Q9 225,Nghĩa trang liệt sĩ TP.HCM,10.873515,106.809458,TP. Thủ Đức - KV2,Phường Tân Phú,Trụ dừng,Quốc lộ 1,Đang khai thác
10,2,7644,QTD 251,Vành đại ĐHQG TPHCM,10.874405,106.806995,TP. Thủ Đức - KV3,Phường Linh Trung,Nhà chờ,Đường 621,Đang khai thác
10,2,7648,QTD 253,KTX Khu A ĐH Quốc Gia TPHCM,10.875886,106.804968,TP. Thủ Đức - KV3,Phường Linh Trung,Nhà chờ,Quảng Trường Sáng Tạo,Đang khai thác
10,2,7623,QTD 254,Đại học Quốc tế (cổng QTST),10.876655,106.802537,TP. Thủ Đức - KV3,Phường Linh Trung,Nhà chờ,Quảng Trường Sáng Tạo,Đang khai thác
10,2,7646,QTD 249,Nhà văn hoá sinh viên,10.874542,106.799995,TP. Thủ Đức - KV3,Phường Linh Trung,Nhà chờ,Quảng Trường Sáng Tạo,Đang khai thác
10,2,7632,QTD 250,Đại học Khoa học xã hội và Nhân văn,10.873446,106.802334,TP. Thủ Đức - KV3,Phường Linh Trung,Nhà chờ,Quảng Trường Sáng Tạo,Đang khai thác
10,2,7651,QTD 272,Vành đai ĐHQG TPHCM,10.874619,106.806271,TP. Thủ Đức - KV3,,Trụ dừng,Đường 621,Đang khai thác
10,2,7829,BX92,Bến xe buýt ĐH Quốc gia TPHCM (mới),10.874479,106.807659,TP. Thủ Đức - KV3,,Bến xe,Nguyễn Hiền,Đang khai thác
100,1,496,BX 20,Bến xe buýt Quận 8,10.733545,106.656357,Quận 8,,Bến xe,Quốc lộ 50,Đang khai thác
100,1,2148,Q8 071,Bến xe Quận 8,10.732776,106.656051,Quận 8,,Trụ dừng,Quốc lộ 50,Đang khai thác
100,1,2149,HBC 168,Công an Bình Hưng,10.7308,106.655971,Huyện Bình Chánh,,Trụ dừng,Quốc lộ 50,Đang khai thác
100,1,2151,HBC 169,Mầm non Ánh Dương,10.72789,106.65589,Huyện Bình Chánh,,Trụ dừng,Quốc lộ 50,Đang khai thác
100,1,2150,HBC 170,Giáo xứ Bình Hưng,10.725292,106.655831,Huyện Bình Chánh,,Trụ dừng,Quốc lộ 50,Đang khai thác
100,1,2153,HBC 171,Bình Hưng,10.72058,106.655686,Huyện Bình Chánh,,Ô sơn,Quốc lộ 50,Đang khai thác
100,1,3019,HBC 172,Nguyễn Văn Linh,10.718477,106.655617,Huyện Bình Chánh,Xã Bình Hưng,Ô sơn,Quốc lộ 50,Đang khai thác
100,1,3020,HBC 173,Trường tiều học Bình Hưng,10.715762,106.655531,Huyện Bình Chánh,Xã Bình Hưng,Trụ dừng,Quốc lộ 50,Đang khai thác
100,1,3021,HBC 174,Chùa An Hòa,10.71193,106.655627,Huyện Bình Chánh,,Ô sơn,Quốc lộ 50,Đang khai thác
100,1,3023,HBC 176,Mầm non Anh Việt,10.708388,106.655359,Huyện Bình Chánh,,Trụ dừng,Quốc lộ 50,Không có
100,1,3025,HBC 177,Xăng dầu Phong Phú,10.704672,106.654801,Huyện Bình Chánh,,Ô sơn,Quốc lộ 50,Đang khai thác
100,1,3024,HBC 178,Chùa Thiện Phước,10.701515,106.654308,Huyện Bình Chánh,,Trụ dừng,Quốc lộ 50,Đang khai thác
100,1,3026,HBC 179,Trung tâm tư vấn đào tạo Úc Mỹ,10.698194,106.654356,Huyện Bình Chánh,,Trụ dừng,Quốc lộ 50,Đang khai thác
100,1,3027,HBC 180,Trạm xăng Kim Quang,10.695416,106.654876,Huyện Bình Chánh,,Ô sơn,Quốc lộ 50,Đang khai thác
100,1,3028,HBC 181,Trịnh Quang Nghị,10.692511,106.654946,Huyện Bình Chánh,,Trụ dừng,Quốc lộ 50,Đang khai thác
100,1,3029,HBC 182,Trường Tiểu học Phong Phú,10.688431,106.653471,Huyện Bình Chánh,,Ô sơn,Quốc lộ 50,Đang khai thác
100,1,3030,HBC 183,Sân banh ngã 3,10.683086,106.651068,Huyện Bình Chánh,,Ô sơn,Quốc lộ 50,Đang khai thác
100,1,3031,HBC 184,Hội quán Thanh niên,10.677989,106.650488,Huyện Bình Chánh,,Ô sơn,Quốc lộ 50,Đang khai thác
100,1,3032,HBC 185,Ngã 3 đường 3S,10.673592,106.650853,Huyện Bình Chánh,,Trụ dừng,Quốc lộ 50,Đang khai thác
100,1,3033,HBC 186,Trường THCS Đa Phước,10.669765,106.651052,Huyện Bình Chánh,,Ô sơn,Quốc lộ 50,Đang khai thác
100,1,3034,HBC 187,Nghĩa trang Đa Phước,10.66667,106.651229,Huyện Bình Chánh,,Trụ dừng,Quốc lộ 50,Đang khai thác
100,1,3035,HBC 188,Đường liên Ấp 1-2,10.662801,106.65154,Huyện Bình Chánh,,Trụ dừng,Quốc lộ 50,Đang khai thác
100,1,3036,HBC 189,Chùa Linh Hòa,10.659954,106.651776,Huyện Bình Chánh,,Trụ dừng,Quốc lộ 50,Đang khai thác
100,1,3038,HBC 191,Chùa Tam Bửu,10.656164,106.653138,Huyện Bình Chánh,,Ô sơn,Quốc lộ 50,Đang khai thác
100,1,3039,HBC 192,Chùa Phước Hội,10.652463,106.654608,Huyện Bình Chánh,,Ô sơn,Quốc lộ 50,Đang khai thác
100,1,3040,HBC 193,Cầu Ông Thìn,10.648087,106.655982,Huyện Bình Chánh,Xã Quy Đức,Ô sơn,Quốc lộ 50,Đang khai thác
100,1,3041,HBC 194,Trạm xăng Hoàng Thái,10.644338,106.656776,Huyện Bình Chánh,Xã Quy Đức,Trụ dừng,Quốc lộ 50,Đang khai thác
100,1,3042,LA_2,Hoàng Thái Mart,10.637843,106.658036,Huyện Bình Chánh,,Ô sơn,Quốc lộ 50,Đang khai thác
100,1,4421,LA_3,Nhà máy Kizunai,10.633299,106.66023,Huyện Bình Chánh,,Ô sơn,Quốc lộ 50 (Quốc lộ 1A),Đang khai thác
100,1,7212,BXLT Go Cong,Bến xe Gò Công,10.359629,106.661925,Ngoại thành,,Bến xe,Trần Công Tưởng,Đang khai thác
100,2,7212,BXLT Go Cong,Bến xe Gò Công,10.359629,106.661925,Ngoại thành,,Bến xe,Trần Công Tưởng,Đang khai thác
100,2,3116,LA_4,Nhà máy Kizunai,10.633061,106.660509,Huyện Bình Chánh,,Ô sơn,Quốc lộ 50,Đang khai thác
100,2,3119,LA_1,Hoàng Thái Mart,10.638318,106.657993,Huyện Bình Chánh,,Ô sơn,Quốc lộ 50,Đang khai thác
100,2,3118,HBC 198,Trạm xăng Hoàng Thái,10.644481,106.656861,Huyện Bình Chánh,Xã Quy Đức,Trụ dừng,Quốc lộ 50,Đang khai thác
100,2,3121,HBC 199,Bệnh viện Tâm thần Bình Minh,10.648282,106.656024,Huyện Bình Chánh,Xã Quy Đức,Trụ dừng,Quốc lộ 50,Đang khai thác
100,2,3120,HBC 200,Chùa Phước Hội,10.652305,106.654791,Huyện Bình Chánh,,Trụ dừng,Quốc lộ 50,Đang khai thác
100,2,3123,HBC 201,Chùa Tam Bửu,10.656296,106.653214,Huyện Bình Chánh,,Ô sơn,Quốc lộ 50,Đang khai thác
100,2,3122,HBC 202,Chùa Linh Hòa,10.659902,106.651905,Huyện Bình Chánh,,Trụ dừng,Quốc lộ 50,Đang khai thác
100,2,3125,HBC 203,Đường liên Ấp 1-2,10.663001,106.651658,Huyện Bình Chánh,Xã Phạm Văn Hai,Trụ dừng,Quốc lộ 50,Đang khai thác
100,2,3124,HBC 204,Nghĩa trang Đa Phước,10.666502,106.651352,Huyện Bình Chánh,,Trụ dừng,Quốc lộ 50,Đang khai thác
100,2,3127,HBC 205,Trường THCS Đa Phước,10.66986,106.651175,Huyện Bình Chánh,,Nhà chờ,Quốc lộ 50,Đang khai thác
100,2,3126,HBC 206,Công ty Hồng Nhất,10.673508,106.651003,Huyện Bình Chánh,,Trụ dừng,Quốc lộ 50,Đang khai thác
100,2,3128,HBC 207,Đình Chánh An Phú,10.677899,106.650681,Huyện Bình Chánh,,Ô sơn,Quốc lộ 50,Đang khai thác
100,2,3129,HBC 208,Trường chuyên biệt Rạng Đông,10.683149,106.651261,Huyện Bình Chánh,,Trụ dừng,Quốc lộ 50,Đang khai thác
100,2,3131,HBC 209,Trường tiểu học Phong Phú,10.688516,106.653691,Huyện Bình Chánh,,Ô sơn,Quốc lộ 50,Đang khai thác
100,2,3130,HBC 210,Trịnh Quang Nghị,10.692622,106.655096,Huyện Bình Chánh,,Ô sơn,Quốc lộ 50,Đang khai thác
100,2,3133,HBC 211,Trạm xăng Kim Quang,10.695548,106.654978,Huyện Bình Chánh,,Ô sơn,Quốc lộ 50,Đang khai thác
100,2,3132,HBC 212,Trung tâm tư vấn đào tạo Úc Mỹ,10.698136,106.654501,Huyện Bình Chánh,,Trụ dừng,Quốc lộ 50,Đang khai thác
100,2,3136,HBC 213,Chùa Thiện Phước,10.701768,106.654587,Huyện Bình Chánh,,Trụ dừng,Quốc lộ 50,Đang khai thác
100,2,3134,HBC 214,Xăng dầu Phong Phú,10.704709,106.654957,Huyện Bình Chánh,,Trụ dừng,Quốc lộ 50,Đang khai thác
100,2,3137,HBC 215,Mầm non Anh Việt,10.70823,106.655493,Huyện Bình Chánh,,Ô sơn,Quốc lộ 50,Đang khai thác
100,2,3135,HBC 216,Chùa Ân Hòa,10.712051,106.655756,Huyện Bình Chánh,,Trụ dừng,Quốc lộ 50,Đang khai thác
100,2,3139,HBC 217,Văn phòng Ấp 3,10.71552,106.655686,Huyện Bình Chánh,Xã Bình Hưng,Ô sơn,Quốc lộ 50,Đang khai thác
100,2,3138,HBC 218,Chùa Thiên Trì,10.718598,106.65574,Huyện Bình Chánh,Xã Bình Hưng,Trụ dừng,Quốc lộ 50,Đang khai thác
100,2,2247,HBC 219,Bình Hưng,10.720848,106.655837,Huyện Bình Chánh,,Ô sơn,Quốc lộ 50,Đang khai thác
100,2,2244,HBC 220,Giáo xứ Bình Hưng,10.724923,106.655944,Huyện Bình Chánh,,Ô sơn,Quốc lộ 50,Đang khai thác
100,2,2246,HBC 221,Mầm non ánh Dương,10.7277,106.656089,Huyện Bình Chánh,,Ô sơn,Quốc lộ 50,Đang khai thác
100,2,2248,HBC 222,Công an Bình Hưng,10.730905,106.656105,Huyện Bình Chánh,,Trụ dừng,Quốc lộ 50,Đang khai thác
100,2,496,BX 20,Bến xe buýt Quận 8,10.733545,106.656357,Quận 8,,Bến xe,Quốc lộ 50,Đang khai thác
101,201,1403,BX44,Bến xe Miền Đông,10.814733,106.711294,Quận Bình Thạnh,,Bến xe,Đinh Bộ Lĩnh,Đang khai thác
101,201,2890,QBTH 072,Ngã Tư Đinh Bộ Lĩnh,10.813647,106.709282,Quận Bình Thạnh,,Trụ dừng,Nguyễn Xí,Đang khai thác
101,201,2893,QBTH 073,Nhà Sách Miền Đông,10.815824,106.707346,Quận Bình Thạnh,,Nhà chờ,Nguyễn Xí,Đang khai thác
101,201,2895,QBTH 074,Ngã Tư Nơ Trang Long,10.818669,106.704739,Quận Bình Thạnh,,Trụ dừng,Nguyễn Xí,Đang khai thác
101,201,2550,QBTH 105,UBND Phường 13,10.819696,106.702974,Quận Bình Thạnh,Phường 13,Trụ dừng,Nơ Trang Long,Đang khai thác
101,201,2541,QBTH 106,Trường Trung cấp xây dựng Tp. HCM,10.819027,106.700833,Quận Bình Thạnh,,Trụ dừng,Nơ Trang Long,Đang khai thác
101,201,7600,QBTH 160,Cầu Rạch Lăng,10.816319,106.700592,Quận Bình Thạnh,Phường 12,Trụ dừng,Phan Chu Trinh,Đang khai thác
101,201,7599,QBTH 159,Học Viện Cán Bộ Thành Phố,10.812536,106.701086,Quận Bình Thạnh,Phường 12,Trụ dừng,Chu Văn An,Đang khai thác
101,201,2543,QBTH 107,Nhà văn hóa Lao Động,10.815528,106.697856,Quận Bình Thạnh,,Trụ dừng,Nơ Trang Long,Đang khai thác
101,201,2545,QBTH 108,Siêu thị Satra Food,10.813352,106.697035,Quận Bình Thạnh,,Trụ dừng,Nơ Trang Long,Đang khai thác
101,201,2552,QBTH 109,Ngã Năm Bình Hòa,10.811903,106.695887,Quận Bình Thạnh,,Trụ dừng,Nơ Trang Long,Đang khai thác
101,201,1768,QBTH 110,Nhà thờ Bình Hòa,10.809906,106.695035,Quận Bình Thạnh,,Trụ dừng,Nơ Trang Long,Đang khai thác
101,201,2107,QBTH 111,Hồ bơi Đại Đồng,10.806992,106.694954,Quận Bình Thạnh,,Trụ dừng,Nơ Trang Long,Đang khai thác
101,201,2110,QBTH 112,Bệnh Viện Gia Định,10.803984,106.694884,Quận Bình Thạnh,Phường 12,Nhà chờ,Nơ Trang Long,Đang khai thác
101,201,594,QBTH 116,Bệnh Viện Gia Định,10.803119,106.693543,Quận Bình Thạnh,Phường 12,Nhà chờ,Phan Đăng Lưu,Đang khai thác
101,201,593,QBTH 117,PCCC quận Bình Thạnh,10.803362,106.691741,Quận Bình Thạnh,,Nhà chờ,Phan Đăng Lưu,Đang khai thác
101,201,595,QPN 019,Bệnh viện Phước An,10.803878,106.687637,Quận Phú Nhuận,,Trụ dừng,Phan Đăng Lưu,Đang khai thác
101,201,596,QPN 020,Đại học Văn Hiến,10.804078,106.686119,Quận Phú Nhuận,,Trụ dừng,Phan Đăng Lưu,Đang khai thác
101,201,597,QPN 021,Ngã Tư Thích Quảng Đức,10.802529,106.683608,Quận Phú Nhuận,,Trụ dừng,Phan Đăng Lưu,Đang khai thác
101,201,598,QPN 022,Ngã tư Phan Xích Long,10.80088,106.681892,Quận Phú Nhuận,,Trụ dừng,Phan Đăng Lưu,Đang khai thác
101,201,599,QPN 010,Ngã tư Phú Nhuận,10.799325,106.679236,Quận Phú Nhuận,,Trụ dừng,Hoàng Văn Thụ,Đang khai thác
101,201,7577,QPN 061,Công An Phú Nhuận,10.799721,106.67436,Quận Phú Nhuận,,Trụ dừng,Hoàng Văn Thụ,Đang khai thác
101,201,601,QPN 011,Siêu thị Big C,10.800153,106.669559,Quận Phú Nhuận,,Nhà chờ,Hoàng Văn Thụ,Đang khai thác
101,201,256,QTB 099,Cổng trước SVĐ Quân Khu 7,10.800848,106.66678,Quận Tân Bình,,Nhà chờ,Phan Đình Giót,Đang khai thác
101,201,258,QTB 107,Vòng xoay Lăng Cha Cả,10.801365,106.662312,Quận Tân Bình,,Nhà chờ,Trần Quốc Hoàn,Đang khai thác
101,201,600,QTB 038,Vòng xoay Lăng Cha Cả,10.798725,106.659071,Quận Tân Bình,,Trụ dừng,Hoàng Văn Thụ,Đang khai thác
101,201,602,QTB 039,Công an Quận Tân Bình,10.79717,106.657425,Quận Tân Bình,,Trụ dừng,Hoàng Văn Thụ,Đang khai thác
101,201,604,QTB 064,Hội Chợ Triển lãm Tân Bình,10.796122,106.655145,Quận Tân Bình,,Trụ dừng,Xuân Diệu,Đang khai thác
101,201,603,QTB 065,Trường Phạm Ngũ Lão,10.796032,106.654066,Quận Tân Bình,,Trụ dừng,Xuân Hồng,Đang khai thác
101,201,606,QTB 066,Cây xăng Đôi,10.794256,106.652184,Quận Tân Bình,,Trụ dừng,Xuân Hồng,Đang khai thác
101,201,1719,QTB 067,Ngã tư Bảy Hiền,10.794182,106.651191,Quận Tân Bình,,Biển treo,Trường Chinh,Đang khai thác
101,201,1720,QTB 068,Nhà Thở Đắc Lộ,10.795068,106.649576,Quận Tân Bình,,Trụ dừng,Trường Chinh,Đang khai thác
101,201,1301,QTB 069,Ngã ba Hoàng Hoa Thám,10.796053,106.647747,Quận Tân Bình,,Nhà chờ,Trường Chinh,Đang khai thác
101,201,1723,QTB 086,Hội Chữ thập đỏ Tân Bình,10.796322,106.645591,Quận Tân Bình,,Ô sơn,Đồng Đen,Đang khai thác
101,201,1724,QTB 087,Trường Trần Quốc Toản,10.792597,106.644241,Quận Tân Bình,,Trụ dừng,Đồng Đen,Đang khai thác
101,201,3159,QTB 144,Phương Nam,10.792167,106.643333,Quận Tân Bình,,Ô sơn,Bàu Cát,Đang khai thác
101,201,4337,QTB 145,Ngã tư Nguyễn Hồng Đào,10.793079,106.641102,Quận Tân Bình,,Trụ dừng,Bàu Cát,Chưa khai thác
101,201,2396,QTP 004,Nguyễn Hồng Đào,10.789466,106.640253,Quận Tân Phú,,Trụ dừng,Âu Cơ,Đang khai thác
101,201,2299,QTP 005,Trạm Ngã 4 Thoại Ngọc Hầu,10.786605,106.641235,Quận Tân Phú,Phường Hoà Thạnh,Ô sơn,Âu Cơ,Đang khai thác
101,201,1729,QTP 119,Trường Trung Cấp CNTT Sài Gòn,10.78513,106.640481,Quận Tân Phú,Phường Hoà Thạnh,Trụ dừng,Thoại Ngọc Hầu,Đang khai thác
101,201,1727,QTP 120,UBND Quận Tân Phú,10.783206,106.637779,Quận Tân Phú,,Trụ dừng,Thoại Ngọc Hầu,Đang khai thác
101,201,3576,QTP 191,Thoại Ngọc Hầu,10.779211,106.635237,Quận Tân Phú,Phường Phú Thạnh,Trụ dừng,Lũy Bán Bích,Đang khai thác
101,201,3577,QTPT220,Đình Hòa Thạnh,10.777061,106.634159,Quận Tân Phú,Phường Phú Thạnh,Trụ dừng,Lũy Bán Bích,Đang khai thác
101,201,3578,QTP 193,công ty nhựa Tân Phú,10.774632,106.632625,Quận Tân Phú,Phường Hiệp Tân,Trụ dừng,Lũy Bán Bích,Đang khai thác
101,201,3579,QTP 194,Cây Keo,10.771633,106.631831,Quận Tân Phú,Phường Hiệp Tân,Trụ dừng,Lũy Bán Bích,Đang khai thác
101,201,1570,QTP 137,Ngã 4 Hòa Bình,10.769973,106.632539,Quận Tân Phú,Phường Hiệp Tân,Biển treo,Hòa Bình,Đang khai thác
101,201,1567,QTP 136,Trường Hoàng Diệu,10.769583,106.633966,Quận Tân Phú,,Trụ dừng,Hòa Bình,Đang khai thác
101,201,1571,Q11 045,Thuỷ Tạ,10.768814,106.637866,Quận 11,,Nhà chờ,Hòa Bình,Đang khai thác
101,201,1022,BX91,Bến xe buýt Đầm Sen,10.767834,106.639733,Quận 11,,Bến xe,Hòa Bình,Đang khai thác
101,202,1022,BX91,Bến xe buýt Đầm Sen,10.767834,106.639733,Quận 11,,Bến xe,Hòa Bình,Đang khai thác
101,202,1616,Q11 044,Trường Hòa Bình,10.768361,106.639261,Quận 11,,Trụ dừng,Hòa Bình,Đang khai thác
101,202,1604,QTP 146,Đầm Sen,10.769367,106.63707,Quận Tân Phú,Phường Hoà Thạnh,Trụ dừng,Hòa Bình,Đang khai thác
101,202,1617,QTP 145,Chùa Huệ Quang,10.769599,106.634604,Quận Tân Phú,Phường Hoà Thạnh,Trụ dừng,Hòa Bình,Đang khai thác
101,202,1619,QTP 144,Ngã 4 Hòa Bình,10.77001,106.632839,Quận Tân Phú,Phường Hoà Thạnh,Trụ dừng,Hòa Bình,Đang khai thác
101,202,2583,QTP 202,Cây Keo,10.771828,106.632072,Quận Tân Phú,Phường Hoà Thạnh,Trụ dừng,Lũy Bán Bích,Đang khai thác
101,202,4292,QTP 203,Công ty Nhựa Tân Phú,10.774437,106.632764,Quận Tân Phú,Phường Hoà Thạnh,Trụ dừng,Lũy Bán Bích,Đang khai thác
101,202,4317,QTP 204,Đình Hòa Thạnh,10.776355,106.633966,Quận Tân Phú,Phường Hoà Thạnh,Trụ dừng,Lũy Bán Bích,Đang khai thác
101,202,4318,QTP 205,Thoại Ngọc Hầu,10.779464,106.635575,Quận Tân Phú,Phường Hoà Thạnh,Trụ dừng,Lũy Bán Bích,Đang khai thác
101,202,4319,QTPT236,Phú thọ Hòa,10.783048,106.636273,Quận Tân Phú,,Trụ dừng,Lũy Bán Bích,Đang khai thác
101,202,4320,QTP 207,Ủy Ban nhân dân quận Tân Phú,10.78505,106.636605,Quận Tân Phú,,Trụ dừng,Lũy Bán Bích,Đang khai thác
101,202,7291,QTP 225,Lũy bán Bích,10.787,106.637753,Quận Tân Phú,Phường Hoà Thạnh,Trụ dừng,Tân Thành,Đang khai thác
101,202,7294,QTP 226,Thiên Hòa,10.786879,106.640446,Quận Tân Phú,Phường Hoà Thạnh,Ô sơn,Tân Thành,Đang khai thác
101,202,2196,QTB 048,Bàu Cát 8,10.78729,106.641182,Quận Tân Bình,,Trụ dừng,Âu Cơ,Đang khai thác
101,202,2420,QTB 049,Chợ Bàu Cát,10.790294,106.640221,Quận Tân Bình,,Trụ dừng,Âu Cơ,Đang khai thác
101,202,4338,QTB 146,Ngã tư Nguyễn Hồng Đào,10.792915,106.640968,Quận Tân Bình,,Trụ dừng,Bàu Cát,Chưa khai thác
101,202,2201,QTB 149,Bàu Cát 2,10.793495,106.642349,Quận Tân Bình,,Ô sơn,Nguyễn Hồng Đào,Đang khai thác
101,202,2203,QTB 148,Ngã ba Trường Chinh,10.797017,106.643445,Quận Tân Bình,,Ô sơn,Nguyễn Hồng Đào,Đang khai thác
101,202,2559,QTB 082,Ngã ba Hồng Đào,10.797666,106.644266,Quận Tân Bình,,Trụ dừng,Trường Chinh,Đang khai thác
101,202,1392,QTB 083,Ngã ba Hoàng Hoa Thám,10.796606,106.646218,Quận Tân Bình,,Trụ dừng,Trường Chinh,Đang khai thác
101,202,1826,QTB 084,Nhà thờ Đắc Lộ,10.794978,106.64926,Quận Tân Bình,,Nhà chờ,Trường Chinh,Đang khai thác
101,202,1830,QTB 085,Ngã tư Bảy Hiền,10.793856,106.651368,Quận Tân Bình,,Nhà chờ,Trường Chinh,Đang khai thác
101,202,510,QTB 034,Bệnh viện Quận Tân Bình,10.79472,106.655198,Quận Tân Bình,,Nhà chờ,Hoàng Văn Thụ,Đang khai thác
101,202,555,QTB 035,Nhà hàng Đông Phương,10.798556,106.659216,Quận Tân Bình,,Nhà chờ,Hoàng Văn Thụ,Đang khai thác
101,202,187,QTB 036,Công viên Hoàng Văn Thụ,10.800469,106.663578,Quận Tân Bình,,Nhà chờ,Hoàng Văn Thụ,Đang khai thác
101,202,186,QTB 037,Bảo Tàng Miền Đông,10.800237,106.666372,Quận Tân Bình,,Nhà chờ,Hoàng Văn Thụ,Đang khai thác
101,202,511,QPN 006,Siêu Thị Big C,10.799942,106.669462,Quận Phú Nhuận,,Trụ dừng,Hoàng Văn Thụ,Đang khai thác
101,202,556,QPN 007,Khách Sạn Tân Sơn Nhất,10.799805,106.670873,Quận Phú Nhuận,,Trụ dừng,Hoàng Văn Thụ,Đang khai thác
101,202,512,QPN 008,Công an Phú Nhuận,10.799542,106.673818,Quận Phú Nhuận,,Trụ dừng,Hoàng Văn Thụ,Đang khai thác
101,202,232,QPN 009,Ngã tư Phú Nhuận,10.799088,106.679354,Quận Phú Nhuận,,Trụ dừng,Hoàng Văn Thụ,Đang khai thác
101,202,558,QPN 015 ,Ngã tư Phan Xích Long,10.800416,106.681741,Quận Phú Nhuận,,Trụ dừng,Phan Đăng Lưu,Đang khai thác
101,202,513,QPN 016,Ngã Tư Thích Quảng Đức,10.802682,106.684075,Quận Phú Nhuận,,Trụ dừng,Phan Đăng Lưu,Đang khai thác
101,202,514,QPN 017,Trường Đại học Văn Hiến,10.803847,106.686108,Quận Phú Nhuận,,Trụ dừng,Phan Đăng Lưu,Đang khai thác
101,202,515,QPN 018,Bệnh Viện Phước An,10.803615,106.687916,Quận Phú Nhuận,,Trụ dừng,Phan Đăng Lưu,Đang khai thác
101,202,7262,QPN 060,Công viên Văn hóa Phú Nhuận,10.803251,106.690384,Quận Phú Nhuận,Phường 07,Nhà chờ,Phan Đăng Lưu,Đang khai thác
101,202,2039,QBTH 097,Bệnh Viện Gia Định,10.803488,106.695013,Quận Bình Thạnh,,Nhà chờ,Nơ Trang Long,Đang khai thác
101,202,2035,QBTH 098,Hồ bơi Đại Đồng,10.806355,106.695131,Quận Bình Thạnh,,Trụ dừng,Nơ Trang Long,Đang khai thác
101,202,1650,QBTH 099,Nhà thờ Bình Hòa,10.809674,106.695185,Quận Bình Thạnh,,Trụ dừng,Nơ Trang Long,Đang khai thác
101,202,2746,QBTH 100,Ngã 5 Bình Hòa,10.811914,106.696086,Quận Bình Thạnh,,Trụ dừng,Nơ Trang Long,Đang khai thác
101,202,2748,QBTH 101,Siêu thị Satra Food,10.813452,106.697298,Quận Bình Thạnh,,Trụ dừng,Nơ Trang Long,Đang khai thác
101,202,2747,QBTH 102,Nhà văn hóa Lao Động,10.816129,106.697969,Quận Bình Thạnh,,Nhà chờ,Nơ Trang Long,Đang khai thác
101,202,7600,QBTH 160,Cầu Rạch Lăng,10.816319,106.700592,Quận Bình Thạnh,Phường 12,Trụ dừng,Phan Chu Trinh,Đang khai thác
101,202,7599,QBTH 159,Học Viện Cán Bộ Thành Phố,10.812536,106.701086,Quận Bình Thạnh,Phường 12,Trụ dừng,Chu Văn An,Đang khai thác
101,202,2750,QBTH 103,Trường Trung cấp xây dựng Tp. HCM,10.818953,106.701069,Quận Bình Thạnh,,Trụ dừng,Nơ Trang Long,Đang khai thác
101,202,2749,QBTH 104,UBND Phường 13,10.819691,106.703333,Quận Bình Thạnh,,Trụ dừng,Nơ Trang Long,Đang khai thác
101,202,2899,QBTH 068,Ngã Tư Nơ Trang Long,10.81859,106.704685,Quận Bình Thạnh,,Trụ dừng,Nguyễn Xí,Đang khai thác
101,202,2900,QBTH 069,Nhà Sách Miền Đông,10.815681,106.707298,Quận Bình Thạnh,,Nhà chờ,Nguyễn Xí,Đang khai thác
101,202,2905,QBTH 070,Ngã Tư Đinh Bộ Lĩnh,10.813679,106.709127,Quận Bình Thạnh,,Trụ dừng,Nguyễn Xí,Đang khai thác
101,202,1408,QBTH 071,Ngã năm Liệt Sĩ,10.81204,106.710624,Quận Bình Thạnh,,Trụ dừng,Nguyễn Xí,Đang khai thác
101,202,303,QBTH 137,Cổng ra - Bến xe Miền Đông 2,10.81232,106.712608,Quận Bình Thạnh,,Trụ dừng,Quốc lộ 13,Đang khai thác
101,202,361,QBTH 038,Cổng vào-Bến xe Miền Đông,10.816661,106.711257,Quận Bình Thạnh,,Nhà chờ,Đinh Bộ Lĩnh,Đang khai thác
101,202,1403,BX44,Bến xe Miền Đông,10.814733,106.711294,Quận Bình Thạnh,,Bến xe,Đinh Bộ Lĩnh,Đang khai thác
102,203,35,BX 01,Bến xe buýt Sài Gòn,10.767676,106.689362,Quận 1,Phường Phạm Ngũ Lão,Bến xe,Lê Lai,Đang khai thác
102,203,7276,Q1 190,Tôn Thất Tùng,10.76767,106.690941,Quận 1,Phường Phạm Ngũ Lão,Trụ dừng,Phạm Ngũ Lão,Đang khai thác
102,203,7277,Q1 191,Nguyễn Thị Nghĩa,10.768788,106.693699,Quận 1,Phường Phạm Ngũ Lão,Trụ dừng,Phạm Ngũ Lão,Đang khai thác
102,203,7278,Q1 192,Trường Emst Thalmann,10.769504,106.695587,Quận 1,Phường Phạm Ngũ Lão,Nhà chờ,Phạm Ngũ Lão,Đang khai thác
102,203,7264,Q1 178,Trạm Trung chuyển trên đường Hàm Nghi,10.770985,106.700758,Quận 1,Phường Nguyễn Thái Bình,Nhà chờ,Hàm Nghi,Đang khai thác
102,203,4223,Q1 102,Trạm Trung chuyển trên đường Hàm Nghi,10.771043,106.699514,Quận 1,Phường Bến Thành,Nhà chờ,Hàm Nghi,Đang khai thác
102,203,1944,Q1 040,Khách sạn New world,10.77129,106.695824,Quận 1,Phường Bến Thành,Trụ dừng,Phạm Hồng Thái,Đang khai thác
102,203,1297,Q1 003,Trống Đồng,10.773046,106.690813,Quận 1,,Nhà chờ,Cách Mạng Tháng Tám,Đang khai thác
102,203,3478,Q3 006,Võ Văn Tần,10.774068,106.688946,Quận 3,Phường 06,Trụ dừng,Cách Mạng Tháng Tám,Đang khai thác
102,203,1296,Q3 007,Bệnh viện Mắt - Bình Dân - Da Liễu,10.776461,106.684467,Quận 3,,Trụ dừng,Cách Mạng Tháng Tám,Đang khai thác
102,203,3477,Q3 008,Công trường Dân Chủ,10.77753,106.682455,Quận 3,,Nhà chờ,Cách Mạng Tháng Tám,Đang khai thác
102,203,1299,Q3 009,Công trường Dân Chủ,10.778516,106.680481,Quận 3,Phường 10,Trụ dừng,Cách Mạng Tháng Tám,Đang khai thác
102,203,1298,Q3 010,Ngã Ba Chí Hòa,10.780703,106.676345,Quận 3,Phường 10,Trụ dừng,Cách Mạng Tháng Tám,Đang khai thác
102,203,2711,Q3 011,Chùa Bửu Đà,10.78163,106.674741,Quận 3,Phường 10,Biển treo,Cách Mạng Tháng Tám,Đang khai thác
102,203,2709,Q3 012,Rạp hát Thanh Vân,10.783738,106.670755,Quận 3,Phường 10,Trụ dừng,Cách Mạng Tháng Tám,Đang khai thác
102,203,2712,Q3 013,Chợ Hòa Hưng,10.784146,106.669945,Quận 3,,Trụ dừng,Cách Mạng Tháng Tám,Đang khai thác
102,203,1300,Q3 014,Công viên Lê Thị Riêng,10.785814,106.66693,Quận 3,Phường 11,Trụ dừng,Cách Mạng Tháng Tám,Đang khai thác
102,203,906,QTB 054,Bắc Hải,10.787486,106.663727,Quận Tân Bình,,Trụ dừng,Cách Mạng Tháng Tám,Đang khai thác
102,203,907,QTB 055,Ngã ba Bành Văn Trân,10.788692,106.661453,Quận Tân Bình,,Biển treo,Cách Mạng Tháng Tám,Đang khai thác
102,203,910,QTB 056,Ông Tạ,10.78963,106.659694,Quận Tân Bình,,Biển treo,Cách Mạng Tháng Tám,Đang khai thác
102,203,909,QTB 057,Cư xá Tự Do,10.791448,106.656218,Quận Tân Bình,,Biển treo,Cách Mạng Tháng Tám,Đang khai thác
102,203,908,QTB 058,Bệnh viện Thống Nhất,10.792649,106.653991,Quận Tân Bình,,Nhà chờ,Cách Mạng Tháng Tám,Đang khai thác
102,203,510,QTB 034,Bệnh viện Quận Tân Bình,10.79472,106.655198,Quận Tân Bình,,Nhà chờ,Hoàng Văn Thụ,Đang khai thác
102,203,603,QTB 065,Trường Phạm Ngũ Lão,10.796032,106.654066,Quận Tân Bình,,Trụ dừng,Xuân Hồng,Đang khai thác
102,203,606,QTB 066,Cây xăng Đôi,10.794256,106.652184,Quận Tân Bình,,Trụ dừng,Xuân Hồng,Đang khai thác
102,203,1719,QTB 067,Ngã tư Bảy Hiền,10.794182,106.651191,Quận Tân Bình,,Biển treo,Trường Chinh,Đang khai thác
102,203,1720,QTB 068,Nhà Thở Đắc Lộ,10.795068,106.649576,Quận Tân Bình,,Trụ dừng,Trường Chinh,Đang khai thác
102,203,1301,QTB 069,Ngã ba Hoàng Hoa Thám,10.796053,106.647747,Quận Tân Bình,,Nhà chờ,Trường Chinh,Đang khai thác
102,203,2713,QTB 070,Ngã ba Bình Giã,10.797792,106.644453,Quận Tân Bình,,Trụ dừng,Trường Chinh,Đang khai thác
102,203,2200,QTB 071,Ngã ba Ấp Bắc,10.799642,106.641036,Quận Tân Bình,,Trụ dừng,Trường Chinh,Đang khai thác
102,203,2205,QTB 072,Chợ Võ Thành Trang,10.801365,106.637823,Quận Tân Bình,,Nhà chờ,Trường Chinh,Đang khai thác
102,203,1302,QTB 073,Ngã tư Tân Kỳ Tân Quý,10.804732,106.635629,Quận Tân Bình,,Biển treo,Trường Chinh,Đang khai thác
102,203,2202,QTB 074,Siêu thị Big C,10.806202,106.635184,Quận Tân Bình,,Nhà chờ,Trường Chinh,Đang khai thác
102,203,268,QTB 075,Mũi tàu Cộng Hòa,10.808314,106.634638,Quận Tân Bình,,Trụ dừng,Trường Chinh,Đang khai thác
102,203,267,QTB 076,Ngã ba Chế Lan Viên,10.812204,106.633349,Quận Tân Bình,,Nhà chờ,Trường Chinh,Đang khai thác
102,203,270,QTB 078,UBND Phường 15,10.818332,106.631461,Quận Tân Bình,,Nhà chờ,Trường Chinh,Đang khai thác
102,203,271,QTB 079,Khu Công Nghiệp Tân Bình,10.822452,106.630254,Quận Tân Bình,,Nhà chờ,Trường Chinh,Đang khai thác
102,203,272,Q12 128,Cầu Tham Lương - Siêu thị Thiên Hòa,10.826957,106.625828,Quận 12,,Nhà chờ,Trường Chinh,Đang khai thác
102,203,273,Q12 129,Chùa Vĩnh Phước,10.828627,106.624594,Quận 12,,Nhà chờ,Trường Chinh,Đang khai thác
102,203,275,Q12 132,Chùa Lạc Quang,10.834781,106.620614,Quận 12,,Nhà chờ,Trường Chinh,Đang khai thác
102,203,277,Q12 131,Bitis,10.838222,106.618398,Quận 12,,Nhà chờ,Trường Chinh,Đang khai thác
102,203,1116,Q12 123,Bến xe An Sương,10.846035,106.613361,Quận 12,,Trụ dừng,Quốc lộ 22,Đang khai thác
102,203,1239,HHM 058,Bến xe An Sương,10.845187,106.613522,Huyện Hóc Môn,Xã Bà Điểm,Trụ dừng,Quốc lộ 22,Đang khai thác
102,203,166,BX41,Bến xe An Sương,10.843737602233887,106.61337280273438,Quận 12,,Bến xe,Quốc lộ 22,Đang khai thác
102,204,166,BX41,Bến xe An Sương,10.843737602233887,106.61337280273438,Quận 12,,Bến xe,Quốc lộ 22,Đang khai thác
102,204,167,Q12 135,Bitis,10.838891,106.617347,Quận 12,,Nhà chờ,Trường Chinh,Đang khai thác
102,204,172,Q12 136,Chùa Lạc Quang,10.834497,106.620212,Quận 12,,Nhà chờ,Trường Chinh,Đang khai thác
102,204,168,Q12 137,Chùa Vĩnh Phước,10.83202,106.621794,Quận 12,,Nhà chờ,Trường Chinh,Đang khai thác
102,204,169,Q12 139,Cầu Tham Lương - Siêu thị Thiên Hòa,10.82624,106.62586,Quận 12,,Nhà chờ,Trường Chinh,Đang khai thác
102,204,174,QTP 010,Trạm Dệt Thành Công,10.822315,106.629825,Quận Tân Phú,Phường Tây Thạnh,Nhà chờ,Trường Chinh,Đang khai thác
102,204,173,QTP 011,Trạm KCN Tân Bình,10.819386,106.630615,Quận Tân Phú,Phường Tây Thạnh,Nhà chờ,Trường Chinh,Đang khai thác
102,204,176,QTP 012,Ngã 3 Chế Lan Viên,10.814455,106.632377,Quận Tân Phú,Phường Tây Thạnh,Nhà chờ,Trường Chinh,Đang khai thác
102,204,177,QTP 014,Trạm Đài Liệt Sỹ,10.808689,106.634019,Quận Tân Phú,Phường Tây Thạnh,Nhà chờ,Trường Chinh,Đang khai thác
102,204,2292,QTP 015,Siêu thị BigC,10.806212,106.634773,Quận Tân Phú,Phường Tây Thạnh,Nhà chờ,Trường Chinh,Đang khai thác
102,204,2291,QTP 016,Trạm Tân Kỳ Tân Quý,10.8048,106.635269,Quận Tân Phú,Phường Tây Thạnh,Trụ dừng,Trường Chinh,Đang khai thác
102,204,2293,QTB 080,Chợ Võ Thành Trang,10.801275,106.637517,Quận Tân Bình,,Trụ dừng,Trường Chinh,Đang khai thác
102,204,2296,QTB 081,Ngã ba Trương Công Định,10.799115,106.641557,Quận Tân Bình,,Trụ dừng,Trường Chinh,Đang khai thác
102,204,2559,QTB 082,Ngã ba Hồng Đào,10.797666,106.644266,Quận Tân Bình,,Trụ dừng,Trường Chinh,Đang khai thác
102,204,1392,QTB 083,Ngã ba Hoàng Hoa Thám,10.796606,106.646218,Quận Tân Bình,,Trụ dừng,Trường Chinh,Đang khai thác
102,204,1826,QTB 084,Nhà thờ Đắc Lộ,10.794978,106.64926,Quận Tân Bình,,Nhà chờ,Trường Chinh,Đang khai thác
102,204,1830,QTB 085,Ngã tư Bảy Hiền,10.793856,106.651368,Quận Tân Bình,,Nhà chờ,Trường Chinh,Đang khai thác
102,204,996,QTB 059,Bệnh viện Thống Nhất,10.792391,106.654131,Quận Tân Bình,,Nhà chờ,Cách Mạng Tháng Tám,Đang khai thác
102,204,998,QTB 060,Y tế Phường 4,10.791463,106.655885,Quận Tân Bình,,Biển treo,Cách Mạng Tháng Tám,Đang khai thác
102,204,1000,QTB 061,Hồ Bơi Cộng Hòa,10.790114,106.65846,Quận Tân Bình,,Biển treo,Cách Mạng Tháng Tám,Đang khai thác
102,204,1002,QTB 062,Ông Tạ,10.789261,106.660075,Quận Tân Bình,,Trụ dừng,Cách Mạng Tháng Tám,Đang khai thác
102,204,1001,QTB 063,Ngã ba Bành Văn Trân,10.78785,106.66274,Quận Tân Bình,,Trụ dừng,Cách Mạng Tháng Tám,Đang khai thác
102,204,1003,Q10 083,Công viên Lê Thị Riêng,10.786236,106.665777,Quận 10,,Nhà chờ,Cách Mạng Tháng Tám,Đang khai thác
102,204,2562,Q10 084,Hội thánh tin lành Hòa Hưng,10.784671,106.668684,Quận 10,,Trụ dừng,Cách Mạng Tháng Tám,Đang khai thác
102,204,2561,Q10 085,Ngã ba Tô Hiến Thành,10.782535,106.672699,Quận 10,,Biển treo,Cách Mạng Tháng Tám,Đang khai thác
102,204,1399,Q10 086,Chùa Bửu Đà,10.78124,106.675063,Quận 10,,Trụ dừng,Cách Mạng Tháng Tám,Đang khai thác
102,204,2564,Q10 087, Ngã ba Hòa Hưng,10.780435,106.676575,Quận 10,,Biển treo,Cách Mạng Tháng Tám,Đang khai thác
102,204,1394,Q10 088,Công trường Dân Chủ,10.778205,106.680706,Quận 10,,Nhà chờ,Cách Mạng Tháng Tám,Đang khai thác
102,204,2563,Q3 015,Công an Quận 3,10.777219,106.68246,Quận 3,,Nhà chờ,Cách Mạng Tháng Tám,Đang khai thác
102,204,1400,Q3 016,Bệnh viện Mắt - Bình Dân - Da Liễu,10.776202,106.684338,Quận 3,,Trụ dừng,Cách Mạng Tháng Tám,Đang khai thác
102,204,2477,Q3 017,Võ Văn Tần,10.77469,106.687202,Quận 3,,Trụ dừng,Cách Mạng Tháng Tám,Đang khai thác
102,204,1396,Q1 004,Trống Đồng,10.772345,106.691499,Quận 1,,Trụ dừng,Cách Mạng Tháng Tám,Đang khai thác
102,204,85,Q1 145,Nguyễn Trãi,10.77097,106.69268,Quận 1,Phường Bến Thành,Trụ dừng,Nguyễn Trãi,Đang khai thác
102,204,87,Q1 146,Tôn Thất Tùng,10.769646,106.690788,Quận 1,Phường Bến Thành,Trụ dừng,Nguyễn Trãi,Đang khai thác
102,204,35,BX 01,Bến xe buýt Sài Gòn,10.767676,106.689362,Quận 1,Phường Phạm Ngũ Lão,Bến xe,Lê Lai,Đang khai thác
104,1,278,BX84,Bến xe buýt Chợ Lớn - B,10.751185,106.65107,Quận 6,,Bến xe,Lê Quang Sung,Đang khai thác
104,1,464,Q5 023,Bến xe Chợ Lớn,10.753299,106.65221,Quận 5,,Trụ dừng,Hồng Bàng,Đang khai thác
104,1,470,Q5 024,Thuận Kiều Plaza,10.754111,106.656749,Quận 5,,Nhà chờ,Hồng Bàng,Đang khai thác
104,1,437,Q5 025,Bệnh viện Chợ Rẫy,10.754553,106.659232,Quận 5,,Trụ dừng,Hồng Bàng,Đang khai thác
104,1,439,Q5 026,Đại học Y Dược,10.75536,106.663191,Quận 5,,Nhà chờ,Hồng Bàng,Đang khai thác
104,1,440,Q5 027,Bệnh viện Đại học Y Dược,10.755671,106.664683,Quận 5,,Nhà chờ,Hồng Bàng,Đang khai thác
104,1,1981,Q5 071,Bệnh viện Nguyễn Tri Phương,10.755728,106.669473,Quận 5,,Trụ dừng,Nguyễn Tri Phương,Đang khai thác
104,1,3166,Q5 061,Bệnh viện Nguyễn Tri Phương,10.754638,106.670149,Quận 5,,Nhà chờ,Nguyễn Trãi,Đang khai thác
104,1,3519,Q5 062,Trần Phú,10.755212,106.673014,Quận 5,,Ô sơn,Nguyễn Trãi,Đang khai thác
104,1,3521,Q5 063,Bệnh viện Nguyễn Trãi,10.755839,106.675084,Quận 5,,Trụ dừng,Nguyễn Trãi,Đang khai thác
104,1,3523,Q5 064,Trường TH Bầu Sen,10.757573,106.679199,Quận 5,,Trụ dừng,Nguyễn Trãi,Đang khai thác
104,1,3524,Q5 065,Đại học Sài Gòn,10.758501,106.681554,Quận 5,,Trụ dừng,Nguyễn Trãi,Đang khai thác
104,1,3079,Q5 039,Trường THCS Ba Đình,10.758242,106.682788,Quận 5,,Trụ dừng,Nguyễn Biểu,Đang khai thác
104,1,3078,Q5 040,Chung cư 109 Nguyễn Biểu,10.755565,106.683769,Quận 5,,Trụ dừng,Nguyễn Biểu,Đang khai thác
104,1,1438,Q8 045,Công viên Phường 2,10.749104,106.683533,Quận 8,,Trụ dừng,Phạm Thế Hiển,Đang khai thác
104,1,1436,Q8 046,Cầu Nguyễn Văn Cừ,10.750469,106.686602,Quận 8,,Trụ dừng,Phạm Thế Hiển,Đang khai thác
104,1,1437,Q7 056,Cầu Rạch Ông,10.751291,106.692621,Quận 7,Phường Tân Hưng,Trụ dừng,Trần Xuân Soạn,Đang khai thác
104,1,1439,Q7 057,Bệnh viện Tân Hưng,10.751644,106.694836,Quận 7,Phường Tân Hưng,Trụ dừng,Trần Xuân Soạn,Đang khai thác
104,1,1441,Q7 058,chùa Kiều Đàm,10.751655,106.698344,Quận 7,Phường Tân Hưng,Trụ dừng,Trần Xuân Soạn,Đang khai thác
104,1,1440,Q7 059,Ủy ban Phường Tân Hưng,10.751691,106.701713,Quận 7,Phường Tân Hưng,Trụ dừng,Trần Xuân Soạn,Đang khai thác
104,1,1447,Q7 060,Ngã 3 Tân Quy,10.751726,106.704552,Quận 7,Phường Tân Hưng,Trụ dừng,Trần Xuân Soạn,Đang khai thác
104,1,1442,Q7 176,Ngã 3 Tân Quy,10.751333,106.705018,Quận 7,Phường Tân Quy,Trụ dừng,Lê Văn Lương,Đang khai thác
104,1,1448,Q7 118,Phan Huy Thực,10.748961,106.704825,Quận 7,Phường Tân Quy,Ô sơn,Lê Văn Lương,Đang khai thác
104,1,1443,Q7 119,Quận Đoàn 7,10.746068,106.704422,Quận 7,,Trụ dừng,Lê Văn Lương,Đang khai thác
104,1,1201,Q7 069,Ngã 3 Tân Quy,10.744134,106.701472,Quận 7,Phường Tân Hưng,Nhà chờ,Nguyễn Hữu Thọ,Đang khai thác
104,1,1199,Q7 070,Siêu thị Lotte,10.741198,106.700946,Quận 7,Phường Tân Hưng,Nhà chờ,Nguyễn Hữu Thọ,Đang khai thác
104,1,1202,Q7 071,Đại học Cảnh sát,10.734573,106.699852,Quận 7,Phường Tân Phong,Nhà chờ,Nguyễn Hữu Thọ,Đang khai thác
104,1,1200,Q7 072,ĐH Tôn Đức Thắng,10.731416,106.700007,Quận 7,Phường Tân Phong,Nhà chờ,Nguyễn Hữu Thọ,Đang khai thác
104,1,1204,Q7 073,Trà My,10.729419,106.700243,Quận 7,Phường Tân Phong,Trụ dừng,Nguyễn Hữu Thọ,Đang khai thác
104,1,835,Q7 095,Phòng cháy chữa cháy Quận 7,10.728106,106.704031,Quận 7,,Nhà chờ,Nguyễn Văn Linh,Đang khai thác
104,1,7070,Q7 189,Hà Huy Tập,10.726857,106.708537,Quận 7,Phường Tân Phong,Trụ dừng,Nguyễn Đức Cảnh,Đang khai thác
104,1,1257,Q7 177,Trường Nam Sài Gòn,10.722588,106.709899,Quận 7,Phường Tân Phong,Trụ dừng,Nguyễn Đức Cảnh,Đang khai thác
104,1,3526,Q7 180,Mỹ Giang 2,10.72137,106.716809,Quận 7,Phường Tân Phong,Trụ dừng,Nguyễn Đức Cảnh,Đang khai thác
104,1,1260,Q7 181,Trần Văn Trà,10.724074,106.72125,Quận 7,Phường Tân Phú,Trụ dừng,Trần Văn Trà,Đang khai thác
104,1,1371,Q7 167,Tân Trào,10.728538,106.722114,Quận 7,Phường Tân Phú,Trụ dừng,Nguyễn Lương Bằng,Đang khai thác
104,1,3525,Q7 171,Bệnh viện Quận 7,10.737809,106.723691,Quận 7,Phường Tân Phú,Trụ dừng,Nguyễn Thị Thập,Đang khai thác
104,1,3527,Q7 174,Huỳnh Tấn Phát,10.737467,106.728712,Quận 7,Phường Bình Thuận,Trụ dừng,Nguyễn Thị Thập,Đang khai thác
104,1,2189,Q7 036,Nghĩa Trang Liệt Sĩ Nhà Bè,10.739944,106.730188,Quận 7,Phường Tân Thuận Đông,Trụ dừng,Huỳnh Tấn Phát,Đang khai thác
104,1,2185,Q7 037,Trường Nguyễn Hữu Cảnh,10.742621,106.729796,Quận 7,Phường Tân Thuận Đông,Trụ dừng,Huỳnh Tấn Phát,Đang khai thác
104,1,2187,Q7 038,Nhà tưởng niệm Bác Hồ,10.745077,106.72941,Quận 7,Phường Tân Thuận Đông,Trụ dừng,Huỳnh Tấn Phát,Đang khai thác
104,1,2190,Q7 039,Bùi Văn Ba,10.749441,106.728868,Quận 7,Phường Tân Thuận Đông,Trụ dừng,Huỳnh Tấn Phát,Đang khai thác
104,1,2188,Q7 040,Khu chế xuất Tân Thuận,10.751892,106.72868,Quận 7,Phường Tân Thuận Đông,Trụ dừng,Huỳnh Tấn Phát,Đang khai thác
104,1,7821,Q7 198,Khu chế xuất Tân Thuận,10.752672,106.726255,Quận 7,Phường Bình Thuận,Nhà chờ,Nguyễn Văn Linh,Đang khai thác
104,1,2118,Q7 067,Sân bóng đá CLB cảng SG,10.752435,106.72242,Quận 7,Phường Tân Kiểng,Trụ dừng,Đường vòng cầu Tân Thuận 2,Đang khai thác
104,1,7304,BX_68,Đại học tài chính Maketing,10.75146,106.720515,Quận 7,Phường Tân Thuận Tây,Bến xe,Đường số 13,Đang khai thác
104,2,7304,BX_68,Đại học tài chính Maketing,10.75146,106.720515,Quận 7,Phường Tân Thuận Tây,Bến xe,Đường số 13,Đang khai thác
104,2,859,Q7 080,Cầu Tân Thuận 2,10.752424,106.723927,Quận 7,,Trụ dừng,Nguyễn Văn Linh,Đang khai thác
104,2,843,Q7 104,Khu chế xuất Tân Thuận,10.752498,106.727414,Quận 7,,Nhà chờ,Nguyễn Văn Linh,Đang khai thác
104,2,2122,Q7 004,Khu chế xuất Tân Thuận,10.75166,106.728428,Quận 7,Phường Tân Thuận Tây,Trụ dừng,Huỳnh Tấn Phát,Đang khai thác
104,2,2123,Q7 005,Bùi Văn Ba,10.749151,106.728643,Quận 7,Phường Bình Thuận,Trụ dừng,Huỳnh Tấn Phát,Đang khai thác
104,2,2125,Q7 006,Nhà tưởng niệm Bác Hồ,10.74575,106.729088,Quận 7,Phường Bình Thuận,Trụ dừng,Huỳnh Tấn Phát,Đang khai thác
104,2,2124,Q7 007,Trường Huỳnh Tấn Phát,10.742901,106.729485,Quận 7,Phường Bình Thuận,Trụ dừng,Huỳnh Tấn Phát,Đang khai thác
104,2,2126,Q7 008,Nghĩa trang liệt sỹ Nhà Bè,10.740381,106.729876,Quận 7,Phường Bình Thuận,Trụ dừng,Huỳnh Tấn Phát,Đang khai thác
104,2,3528,Q7 173,Sân bóng đá mini Phú MỸ,10.737728,106.728386,Quận 7,Phường Bình Thuận,Trụ dừng,Nguyễn Thị Thập,Đang khai thác
104,2,3530,Q7 172,Bệnh viện Quận 7,10.738041,106.723455,Quận 7,Phường Bình Thuận,Trụ dừng,Nguyễn Thị Thập,Đang khai thác
104,2,1355,Q7 154,Tân Trào,10.728222,106.721873,Quận 7,Phường Tân Phú,Trụ dừng,Nguyễn Lương Bằng,Đang khai thác
104,2,1243,Q7 182,Trần Văn Trà,10.724101,106.720993,Quận 7,Phường Tân Phú,Trụ dừng,Trần Văn Trà,Đang khai thác
104,2,1242,Q7 179,Mỹ Giang 2,10.721586,106.716857,Quận 7,Phường Tân Phong,Trụ dừng,Nguyễn Đức Cảnh,Đang khai thác
104,2,1203,Q7 178,Trường Nam Sài Gòn,10.722751,106.709948,Quận 7,Phường Tân Phong,Trụ dừng,Nguyễn Đức Cảnh,Đang khai thác
104,2,7071,Q7 190,Hà Huy Tập,10.726757,106.708692,Quận 7,Phường Tân Phong,Trụ dừng,Nguyễn Đức Cảnh,Đang khai thác
104,2,872,Q7 090,Sky Garden,10.729234,106.7049,Quận 7,,Trụ dừng,Nguyễn Văn Linh,Đang khai thác
104,2,1244,Q7 074,Tra My,10.729461,106.700479,Quận 7,Phường Tân Phong,Trụ dừng,Nguyễn Hữu Thọ,Đang khai thác
104,2,1246,Q7 075,ĐH Tôn Đức Thắng,10.731537,106.700222,Quận 7,Phường Tân Phong,Trụ dừng,Nguyễn Hữu Thọ,Đang khai thác
104,2,1245,Q7 076,Đại học Cảnh sát,10.733983,106.700002,Quận 7,Phường Tân Phong,Nhà chờ,Nguyễn Hữu Thọ,Đang khai thác
104,2,1247,Q7 077,Siêu thị Lotte,10.741214,106.701193,Quận 7,Phường Tân Hưng,Nhà chờ,Nguyễn Hữu Thọ,Đang khai thác
104,2,1249,Q7 078,Ngã 3 Tân Quy,10.744229,106.701708,Quận 7,Phường Tân Hưng,Trụ dừng,Nguyễn Hữu Thọ,Đang khai thác
104,2,1453,Q7 132,Quận Đoàn 7,10.745957,106.704519,Quận 7,,Trụ dừng,Lê Văn Lương,Đang khai thác
104,2,1445,Q7 133,Phan Huy Thục,10.748861,106.704943,Quận 7,,Trụ dừng,Lê Văn Lương,Đang khai thác
104,2,1454,Q7 134,Ngã 3 Tân Quy,10.751468,106.705124,Quận 7,Phường Tân Quy,Trụ dừng,Lê Văn Lương,Đang khai thác
104,2,1455,Q7 051,Ngã 3 Tân Quy,10.751839,106.704508,Quận 7,Phường Tân Hưng,Nhà chờ,Trần Xuân Soạn,Đang khai thác
104,2,1446,Q7 052,Ủy ban Phường Tân Hưng,10.751786,106.701347,Quận 7,Phường Tân Hưng,Trụ dừng,Trần Xuân Soạn,Đang khai thác
104,2,1456,Q7 053,chùa Kiều Đàm,10.751776,106.697998,Quận 7,Phường Tân Hưng,Trụ dừng,Trần Xuân Soạn,Đang khai thác
104,2,1450,Q7 054,Bệnh viện Tân Hưng,10.751731,106.694519,Quận 7,Phường Tân Hưng,Trụ dừng,Trần Xuân Soạn,Đang khai thác
104,2,1461,Q7 055,Cầu Rạch Ông,10.751496,106.692969,Quận 7,Phường Tân Hưng,Nhà chờ,Trần Xuân Soạn,Đang khai thác
104,2,1452,Q8 001,Cầu Nguyễn Văn Cừ,10.750859,106.68724,Quận 8,,Trụ dừng,Phạm Thế Hiển,Đang khai thác
104,2,3009,Q5 037,Chung cư 109 Nguyễn Biểu,10.755424,106.683945,Quận 5,,Trụ dừng,Nguyễn Biểu,Đang khai thác
104,2,3012,Q5 038,Trường THCS Ba Đình,10.75819,106.682927,Quận 5,,Trụ dừng,Nguyễn Biểu,Đang khai thác
104,2,3529,Q5 049,Trường TH Bầu Sen,10.757842,106.67951,Quận 5,,Trụ dừng,Nguyễn Trãi,Đang khai thác
104,2,3532,Q5 050,Bệnh viện Nguyễn Trãi,10.756071,106.675299,Quận 5,,Trụ dừng,Nguyễn Trãi,Đang khai thác
104,2,3531,Q5 051,Trần Phú,10.755402,106.673266,Quận 5,,Biển treo,Nguyễn Trãi,Đang khai thác
104,2,3535,Q5 052,Bệnh viện Nguyễn Tri Phương,10.754811,106.670364,Quận 5,,Nhà chờ,Nguyễn Trãi,Đang khai thác
104,2,2082,Q5 067,Bệnh viện Nguyễn Tri Phương,10.755486,106.669698,Quận 5,,Nhà chờ,Nguyễn Tri Phương,Đang khai thác
104,2,432,Q5 068,Công viên Văn Lang,10.757151,106.669613,Quận 5,,Trụ dừng,Nguyễn Tri Phương,Đang khai thác
104,2,431,Q5 031,Công viên Văn Lang,10.757257,106.668566,Quận 5,,Nhà chờ,Hùng Vương,Đang khai thác
104,2,433,Q5 017,Bệnh viện Phạm Ngọc Thạch,10.755897,106.664511,Quận 5,,Nhà chờ,Hồng Bàng,Đang khai thác
104,2,434,Q5 018,Hùng Vương Plaza,10.755196,106.661072,Quận 5,,Nhà chờ,Hồng Bàng,Đang khai thác
104,2,436,Q5 019,Bệnh viện Chợ Rẫy,10.754875,106.659501,Quận 5,,Trụ dừng,Hồng Bàng,Đang khai thác
104,2,435,Q5 020,Thuận Kiều Plaza,10.75458,106.657934,Quận 5,,Nhà chờ,Hồng Bàng,Đang khai thác
104,2,438,Q5 021,Dương Tử Giang,10.754158,106.65552,Quận 5,,Nhà chờ,Hồng Bàng,Đang khai thác
104,2,278,BX84,Bến xe buýt Chợ Lớn - B,10.751185,106.65107,Quận 6,,Bến xe,Lê Quang Sung,Đang khai thác
105,1,35,BX 01,Bến xe buýt Sài Gòn,10.767676,106.689362,Quận 1,Phường Phạm Ngũ Lão,Bến xe,Lê Lai,Đang khai thác
105,1,7276,Q1 190,Tôn Thất Tùng,10.76767,106.690941,Quận 1,Phường Phạm Ngũ Lão,Trụ dừng,Phạm Ngũ Lão,Đang khai thác
105,1,7277,Q1 191,Nguyễn Thị Nghĩa,10.768788,106.693699,Quận 1,Phường Phạm Ngũ Lão,Trụ dừng,Phạm Ngũ Lão,Đang khai thác
105,1,7278,Q1 192,Trường Emst Thalmann,10.769504,106.695587,Quận 1,Phường Phạm Ngũ Lão,Nhà chờ,Phạm Ngũ Lão,Đang khai thác
105,1,120,Q1 124,Trường Ernst Thalmann,10.768772,106.695923,Quận 1,,Nhà chờ,Trần Hưng Đạo,Đang khai thác
105,1,3080,Q1 121,Trần Hưng Đạo,10.768434,106.695335,Quận 1,Phường Phạm Ngũ Lão,Nhà chờ,Nguyễn Thái Học,Đang khai thác
105,1,84,Q1 123,Ngã sáu Phù Đổng,10.770901,106.693833,Quận 1,Phường Bến Thành,Nhà chờ,Nguyễn Thị Nghĩa,Đang khai thác
105,1,1297,Q1 003,Trống Đồng,10.773046,106.690813,Quận 1,,Nhà chờ,Cách Mạng Tháng Tám,Đang khai thác
105,1,3478,Q3 006,Võ Văn Tần,10.774068,106.688946,Quận 3,Phường 06,Trụ dừng,Cách Mạng Tháng Tám,Đang khai thác
105,1,1882,Q3 061,Cách mạng Tháng Tám,10.77465,106.686394,Quận 3,,Trụ dừng,Nguyễn Đình Chiểu,Đang khai thác
105,1,1889,Q3 062,Chợ Vườn Chuối,10.772213,106.684086,Quận 3,Phường 04,Trụ dừng,Nguyễn Đình Chiểu,Đang khai thác
105,1,1884,Q3 063,Cao thắng,10.769731,106.681672,Quận 3,,Trụ dừng,Nguyễn Đình Chiểu,Đang khai thác
105,1,1890,Q3 064,Chợ Bàn Cờ,10.768289,106.680359,Quận 3,,Biển treo,Nguyễn Đình Chiểu,Đang khai thác
105,1,1885,Q3 065,Lý Thái Tổ,10.76709,106.67926,Quận 3,,Trụ dừng,Nguyễn Đình Chiểu,Đang khai thác
105,1,1413,Q3 038,Nguyễn Đình Chiểu,10.76668,106.678099,Quận 3,,Trụ dừng,Lý Thái Tổ,Đang khai thác
105,1,1416,Q3 039,Hồ Thị Kỷ,10.767423,106.675664,Quận 3,,Biển treo,Lý Thái Tổ,Đang khai thác
105,1,1411,Q10 029,Chợ Phường 10,10.767865,106.673051,Quận 10,,Trụ dừng,Lý Thái Tổ,Đang khai thác
105,1,1412,Q10 030,Bện viện Nhi Đồng 1,10.768029,106.669739,Quận 10,,Nhà chờ,Lý Thái Tổ,Đang khai thác
105,1,3301,Q10 063,Nhà thờ Đồng Tiến,10.769878,106.666237,Quận 10,,Nhà chờ,Thành Thái,Đang khai thác
105,1,3302,Q10 064,Bệnh viện 115,10.772676,106.665108,Quận 10,,Nhà chờ,Thành Thái,Đang khai thác
105,1,3303,Q10 065,Quán Hoàng Ty,10.775486,106.664032,Quận 10,,Biển treo,Thành Thái,Đang khai thác
105,1,1007,Q10 062,Ngân hàng Quân Đội,10.775531,106.662819,Quận 10,,Trụ dừng,Tô Hiến Thành,Đang khai thác
105,1,1013,Q10 061,Đại học Bách Khoa (cổng sau),10.773322,106.661125,Quận 10,,Nhà chờ,Tô Hiến Thành,Đang khai thác
105,1,1008,Q10 060,Bệnh viện Trưng Vương,10.771244,106.659096,Quận 10,,Nhà chờ,Tô Hiến Thành,Đang khai thác
105,1,2855,Q11 050,Nhà thi đấu Phú Thọ,10.770645,106.656738,Quận 11,,Trụ dừng,Lữ Gia,Đang khai thác
105,1,2852,Q11 051,Coopmart Phú Thọ,10.771143,106.653236,Quận 11,,Trụ dừng,Lữ Gia,Đang khai thác
105,1,3480,Q11 055,UBND Phường 11,10.767902,106.650314,Quận 11,,Ô sơn,Bình Thới,Đang khai thác
105,1,3479,Q11 056,Chợ Chim Xanh,10.765965,106.647392,Quận 11,,Nhà chờ,Bình Thới,Đang khai thác
105,1,1020,Q11 040,Tòa án nhân dân Quận 11,10.76659,106.643082,Quận 11,,Trụ dừng,Ông Ích Khiêm,Đang khai thác
105,1,1029,Q11 043,Bãi xe buýt Đầm Sen,10.767196,106.641176,Quận 11,,Ô sơn,Hòa Bình,Đang khai thác
105,1,1616,Q11 044,Trường Hòa Bình,10.768361,106.639261,Quận 11,,Trụ dừng,Hòa Bình,Đang khai thác
105,1,1604,QTP 146,Đầm Sen,10.769367,106.63707,Quận Tân Phú,Phường Hoà Thạnh,Trụ dừng,Hòa Bình,Đang khai thác
105,1,1617,QTP 145,Chùa Huệ Quang,10.769599,106.634604,Quận Tân Phú,Phường Hoà Thạnh,Trụ dừng,Hòa Bình,Đang khai thác
105,1,1619,QTP 144,Ngã 4 Hòa Bình,10.77001,106.632839,Quận Tân Phú,Phường Hoà Thạnh,Trụ dừng,Hòa Bình,Đang khai thác
105,1,2583,QTP 202,Cây Keo,10.771828,106.632072,Quận Tân Phú,Phường Hoà Thạnh,Trụ dừng,Lũy Bán Bích,Đang khai thác
105,1,4292,QTP 203,Công ty Nhựa Tân Phú,10.774437,106.632764,Quận Tân Phú,Phường Hoà Thạnh,Trụ dừng,Lũy Bán Bích,Đang khai thác
105,1,4317,QTP 204,Đình Hòa Thạnh,10.776355,106.633966,Quận Tân Phú,Phường Hoà Thạnh,Trụ dừng,Lũy Bán Bích,Đang khai thác
105,1,4318,QTP 205,Thoại Ngọc Hầu,10.779464,106.635575,Quận Tân Phú,Phường Hoà Thạnh,Trụ dừng,Lũy Bán Bích,Đang khai thác
105,1,4319,QTPT236,Phú thọ Hòa,10.783048,106.636273,Quận Tân Phú,,Trụ dừng,Lũy Bán Bích,Đang khai thác
105,1,4320,QTP 207,Ủy Ban nhân dân quận Tân Phú,10.78505,106.636605,Quận Tân Phú,,Trụ dừng,Lũy Bán Bích,Đang khai thác
105,1,4277,QTP 038,"14-16, Vườn Lài",10.786679,106.636031,Quận Tân Phú,Phường Tân Thành,Ô sơn,Vườn Lài,Đang khai thác
105,1,4278,QTP 039,"100, Vườn Lài",10.787722,106.633703,Quận Tân Phú,Phường Tân Thành,Trụ dừng,Vườn Lài,Đang khai thác
105,1,4279,QTP 040,"180, Vườn Lài",10.787996,106.628532,Quận Tân Phú,Phường Tân Thành,Trụ dừng,Vườn Lài,Đang khai thác
105,1,4280,QTP 041,"240, Vườn Lài",10.787817,106.626762,Quận Tân Phú,Phường Phú Thọ Hoà,Ô sơn,Vườn Lài,Đang khai thác
105,1,3481,QTP 042,Trạm Phạm Văn Xảo,10.788317,106.623725,Quận Tân Phú,Phường Phú Thọ Hoà,Trụ dừng,Vườn Lài,Đang khai thác
105,1,2584,QTP 113,Trạm Chợ Tân Hương,10.790178,106.621381,Quận Tân Phú,Phường Tân Qúy,Trụ dừng,Tân Hương,Đang khai thác
105,1,2591,QTP 099,Trạm y tế  P.Tân Quý,10.790715,106.620839,Quận Tân Phú,Phường Tân Qúy,Trụ dừng,Tân Quý,Đang khai thác
105,1,2586,QTP 100,Trạm café Minh Thùy,10.792765,106.620628,Quận Tân Phú,Phường Tân Qúy,Trụ dừng,Tân Quý,Đang khai thác
105,1,2593,QTP 101,Trạm Ngã 4 Gò Dầu- Tân Quý,10.795331,106.620389,Quận Tân Phú,Phường Tân Qúy,Trụ dừng,Tân Quý,Đang khai thác
105,1,3483,QTP 055,Trạm Dương Văn Dương,10.795945,106.61747,Quận Tân Phú,Phường Tân Qúy,Ô sơn,Gò Dầu,Đang khai thác
105,1,3484,QTP 181,Trạm Tân Kỳ Tân Quý,10.795964,106.614112,Quận Tân Phú,Phường Tân Qúy,Trụ dừng,Bình Long,Đang khai thác
105,1,1967,QTP 085,Trạm Bình Long,10.796944,106.614241,Quận Tân Phú,Phường Tân Qúy,Trụ dừng,Tân Kỳ Tân Quý,Đang khai thác
105,1,1970,QTP 086,Trường Tiểu Học Tân Quý,10.79844,106.61688,Quận Tân Phú,Phường Tân Qúy,Trụ dừng,Tân Kỳ Tân Quý,Đang khai thác
105,1,1973,QTP 087,Tân Quý,10.799283,106.61901,Quận Tân Phú,,Trụ dừng,Tân Kỳ Tân Quý,Đang khai thác
105,1,2592,QTP 088,Trạm Nhà Thờ Họ Tộc Nguyễn,10.799974,106.620845,Quận Tân Phú,Phường Tân Qúy,Ô sơn,Tân Kỳ Tân Quý,Đang khai thác
105,1,2597,QTP 089,Showroom otô,10.800703,106.622986,Quận Tân Phú,,Trụ dừng,Tân Kỳ Tân Quý,Đang khai thác
105,1,2594,QTP 090,Trạm Xăng,10.801929,106.626075,Quận Tân Phú,Phường Tân Sơn Nhì,Trụ dừng,Tân Kỳ Tân Quý,Đang khai thác
105,1,2596,QTP 091,Trạm Đường Số 27,10.802643,106.628525,Quận Tân Phú,Phường Tân Sơn Nhì,Ô sơn,Tân Kỳ Tân Quý,Đang khai thác
105,1,2598,QTP 092,Trạm Lê Trọng Tấn,10.803166,106.631592,Quận Tân Phú,Phường Tân Sơn Nhì,Ô sơn,Tân Kỳ Tân Quý,Đang khai thác
105,1,2600,QTP 060,Trạm Đầu Lê Trọng Tấn,10.804282,106.632187,Quận Tân Phú,Phường Tây Thạnh,Trụ dừng,Lê Trọng Tấn,Đang khai thác
105,1,2602,QTP 061,Trường Đại học Công Nghiệp Thực Phẩm,10.806065,106.628586,Quận Tân Phú,Phường Tây Thạnh,Ô sơn,Lê Trọng Tấn,Đang khai thác
105,1,2000,QTP 062,Nguyễn Hữu Tiến,10.806785,106.625366,Quận Tân Phú,Phường Tây Thạnh,Trụ dừng,Lê Trọng Tấn,Đang khai thác
105,1,2005,QTP 063,Trạm Bờ Bao Tân Thắng,10.807464,106.622177,Quận Tân Phú,Phường Tây Thạnh,Trụ dừng,Lê Trọng Tấn,Đang khai thác
105,1,2917,QTP 064,Trạm Tây Thạnh,10.808257,106.619133,Quận Tân Phú,Phường Tây Thạnh,Trụ dừng,Lê Trọng Tấn,Đang khai thác
105,1,3101,QTP 065,Trạm Kênh 19/5,10.809163,106.616302,Quận Tân Phú,Phường Tây Thạnh,Trụ dừng,Lê Trọng Tấn,Đang khai thác
105,1,3100,QTP 066,Trạm Đường CN 13,10.810217,106.61351,Quận Tân Phú,Phường Tây Thạnh,Trụ dừng,Lê Trọng Tấn,Đang khai thác
105,1,3103,QTP 067,Công Ty bánh Givral,10.812114,106.609673,Quận Tân Phú,Phường Tây Thạnh,Trụ dừng,Lê Trọng Tấn,Đang khai thác
105,1,2505,QBT 024,Gò Mây,10.814612,106.605427,Quận Bình Tân,Phường Bình Hưng Hòa,Trụ dừng,Lê Trọng Tấn,Đang khai thác
105,1,2521,QBT 023,Ngân hàng Á Châu,10.815971,106.603043,Quận Bình Tân,Phường Bình Hưng Hòa,Trụ dừng,Lê Trọng Tấn,Đang khai thác
105,1,2520,QBT 030,Công ty Bảo Châu,10.815697,106.594925,Quận Bình Tân,Phường Bình Hưng Hoà B,Trụ dừng,Nguyễn Thị Tú,Đang khai thác
105,1,7607,QBT 302,Ủy ban nhân dân Bình Hưng Hòa,10.813863,106.593674,Quận Bình Tân,Phường Bình Hưng Hòa,Nhà chờ,Đường số 3,Đang khai thác
105,1,7606,QBT 303,Trường THCS Huỳnh Văn Nghệ ,10.810702,106.592896,Quận Bình Tân,Phường Bình Hưng Hòa,Trụ dừng,Đường số 3,Đang khai thác
105,1,7605,QBT 304,Chung cư GreenTown,10.805686,106.591855,Quận Bình Tân,Phường Bình Hưng Hoà B,Nhà chờ,Đường số 3,Đang khai thác
105,1,7604,QBT 305,Trường Trí Tuệ Việt,10.803652,106.591169,Quận Bình Tân,Phường Bình Hưng Hoà B,Nhà chờ,Đường số 3,Đang khai thác
105,2,7604,QBT 305,Trường Trí Tuệ Việt,10.803652,106.591169,Quận Bình Tân,Phường Bình Hưng Hoà B,Nhà chờ,Đường số 3,Đang khai thác
105,2,7603,QBT 306,Chung cư Green Town,10.805296,106.591871,Quận Bình Tân,Phường Bình Hưng Hoà B,Nhà chờ,Đường số 3,Đang khai thác
105,2,7601,QBT 307,Trung tâm Thanh thiếu niên miền Nam,10.810776,106.593019,Quận Bình Tân,Phường Bình Hưng Hoà B,Trụ dừng,Đường số 3,Đang khai thác
105,2,7602,QBT 308,Ủy ban nhân dân Bình Hưng Hòa B,10.814206,106.593835,Quận Bình Tân,Phường Bình Hưng Hoà B,Trụ dừng,Đường số 3,Đang khai thác
105,2,2444,QBT 035,Công ty Bảo Ngọc Châu,10.81555,106.594913,Quận Bình Tân,,Trụ dừng,Nguyễn Thị Tú,Đang khai thác
105,2,2447,QBT 022,Nguyễn Thị Tú,10.815718,106.602783,Quận Bình Tân,Phường Bình Hưng Hòa,Trụ dừng,Lê Trọng Tấn,Đang khai thác
105,2,2446,QBT 021,Từ bảo Nghi,10.814411,106.60495,Quận Bình Tân,Phường Bình Hưng Hòa,Trụ dừng,Lê Trọng Tấn,Đang khai thác
105,2,3153,QTP 068,Công Ty bánh Givral,10.811735,106.609238,Quận Tân Phú,Phường Sơn Kỳ,Trụ dừng,Lê Trọng Tấn,Đang khai thác
105,2,3156,QTP 069,Trạm Đường CN 13,10.809837,106.613106,Quận Tân Phú,Phường Sơn Kỳ,Nhà chờ,Lê Trọng Tấn,Đang khai thác
105,2,3155,QTP 070,Trạm Kênh 19/5,10.808721,106.615913,Quận Tân Phú,Phường Sơn Kỳ,Trụ dừng,Lê Trọng Tấn,Đang khai thác
105,2,2924,QTP 071,Tây Thạnh,10.807646,106.61982,Quận Tân Phú,Phường Sơn Kỳ,Trụ dừng,Lê Trọng Tấn,Đang khai thác
105,2,1974,QTP 072,Trạm Bờ Bao Tân Thắng,10.80731,106.622368,Quận Tân Phú,Phường Sơn Kỳ,Trụ dừng,Lê Trọng Tấn,Đang khai thác
105,2,1975,QTP 073,Nguyễn Hữu Tiến,10.806767,106.624886,Quận Tân Phú,Phường Sơn Kỳ,Trụ dừng,Lê Trọng Tấn,Đang khai thác
105,2,2654,QTP 074,Trường Đại học Công Nghiệp Thực Phẩm,10.805859,106.628671,Quận Tân Phú,Phường Sơn Kỳ,Ô sơn,Lê Trọng Tấn,Đang khai thác
105,2,2925,QTP 075,Trạm Tân Kỳ Tân Quý,10.804359,106.631981,Quận Tân Phú,Phường Sơn Kỳ,Ô sơn,Lê Trọng Tấn,Đang khai thác
105,2,2657,QTP 077,Trạm café BonJour,10.803346,106.631577,Quận Tân Phú,Phường Sơn Kỳ,Ô sơn,Tân Kỳ Tân Quý,Đang khai thác
105,2,2656,QTP 078,Trạm Đường Số 27,10.802817,106.628487,Quận Tân Phú,Phường Sơn Kỳ,Trụ dừng,Tân Kỳ Tân Quý,Đang khai thác
105,2,2659,QTP 079,Trạm cây xăng Sài Gòn Petro,10.802044,106.625923,Quận Tân Phú,,Ô sơn,Tân Kỳ Tân Quý,Đang khai thác
105,2,2658,QTP 080,Showroom otô,10.801045,106.62336,Quận Tân Phú,Phường Sơn Kỳ,Trụ dừng,Tân Kỳ Tân Quý,Đang khai thác
105,2,2660,QTP 081,Trạm Nhà Thờ Họ Tộc Nguyễn,10.799963,106.620499,Quận Tân Phú,Phường Sơn Kỳ,Trụ dừng,Tân Kỳ Tân Quý,Đang khai thác
105,2,2004,QTP 082,Tân Quý,10.799231,106.618629,Quận Tân Phú,Phường Sơn Kỳ,Trụ dừng,Tân Kỳ Tân Quý,Đang khai thác
105,2,2007,QTP 083,Trường Tiểu Học Tân Quý,10.798385,106.616493,Quận Tân Phú,Phường Sơn Kỳ,Trụ dừng,Tân Kỳ Tân Quý,Đang khai thác
105,2,2009,QTP 084,Trạm Bình Long,10.797263,106.614571,Quận Tân Phú,Phường Sơn Kỳ,Trụ dừng,Tân Kỳ Tân Quý,Đang khai thác
105,2,3567,QTP 048,Dương Văn Dương,10.795776,106.617661,Quận Tân Phú,Phường Tân Qúy,Trụ dừng,Gò Dầu,Đang khai thác
105,2,2665,QTP 096,Trạm Gò Dầu,10.795079,106.620316,Quận Tân Phú,Phường Tân Qúy,Trụ dừng,Tân Quý,Đang khai thác
105,2,2662,QTP 097,Tiệm cửa sắt,10.792974,106.620468,Quận Tân Phú,Phường Tân Qúy,Trụ dừng,Tân Quý,Đang khai thác
105,2,2664,QTP 098,Trạm Y tế phường Tân Quý,10.791017,106.620735,Quận Tân Phú,Phường Tân Qúy,Trụ dừng,Tân Quý,Đang khai thác
105,2,2553,QTP 106,Trạm Chợ Tân Hương,10.790046,106.621666,Quận Tân Phú,Phường Tân Qúy,Trụ dừng,Tân Hương,Đang khai thác
105,2,3571,QTP 043,Trạm Phạm Văn Xảo,10.788296,106.623377,Quận Tân Phú,Phường Phú Thọ Hoà,Trụ dừng,Vườn Lài,Đang khai thác
105,2,3569,QTP 044,Vườn Lài,10.787748,106.626221,Quận Tân Phú,Phường Phú Thọ Hoà,Trụ dừng,Vườn Lài,Đang khai thác
105,2,3572,QTP 045,Minh Tâm,10.788038,106.62928,Quận Tân Phú,,Ô sơn,Vườn Lài,Đang khai thác
105,2,3570,QTP 046,Trạm Nguyễn Văn Tố,10.787796,106.632668,Quận Tân Phú,Phường Phú Thọ Hoà,Trụ dừng,Vườn Lài,Đang khai thác
105,2,3573,QTP 047,Trạm Lũy Bán Bích,10.786632,106.635857,Quận Tân Phú,Phường Phú Thọ Hoà,Trụ dừng,Vườn Lài,Đang khai thác
105,2,3574,QTP 189,Ủy Ban nhân dân quận Tân Phú,10.78534,106.636385,Quận Tân Phú,,Nhà chờ,Lũy Bán Bích,Đang khai thác
105,2,3575,QTP 190,Phú thọ Hòa,10.782489,106.63594,Quận Tân Phú,Phường Phú Thọ Hoà,Trụ dừng,Lũy Bán Bích,Đang khai thác
105,2,3576,QTP 191,Thoại Ngọc Hầu,10.779211,106.635237,Quận Tân Phú,Phường Phú Thạnh,Trụ dừng,Lũy Bán Bích,Đang khai thác
105,2,3577,QTPT220,Đình Hòa Thạnh,10.777061,106.634159,Quận Tân Phú,Phường Phú Thạnh,Trụ dừng,Lũy Bán Bích,Đang khai thác
105,2,3578,QTP 193,công ty nhựa Tân Phú,10.774632,106.632625,Quận Tân Phú,Phường Hiệp Tân,Trụ dừng,Lũy Bán Bích,Đang khai thác
105,2,3579,QTP 194,Cây Keo,10.771633,106.631831,Quận Tân Phú,Phường Hiệp Tân,Trụ dừng,Lũy Bán Bích,Đang khai thác
105,2,1570,QTP 137,Ngã 4 Hòa Bình,10.769973,106.632539,Quận Tân Phú,Phường Hiệp Tân,Biển treo,Hòa Bình,Đang khai thác
105,2,1567,QTP 136,Trường Hoàng Diệu,10.769583,106.633966,Quận Tân Phú,,Trụ dừng,Hòa Bình,Đang khai thác
105,2,1571,Q11 045,Thuỷ Tạ,10.768814,106.637866,Quận 11,,Nhà chờ,Hòa Bình,Đang khai thác
105,2,1569,Q11 046,Bãi xe buýt Đầm Sen,10.767929,106.639776,Quận 11,,Nhà chờ,Hòa Bình,Đang khai thác
105,2,1043,Q11 047,Ngã tư Hòa Bình,10.76698,106.641571,Quận 11,,Trụ dừng,Hòa Bình,Đang khai thác
105,2,1044,Q11 041,Tòa án nhân dân Quận 11,10.766342,106.643349,Quận 11,,Trụ dừng,Ông Ích Khiêm,Đang khai thác
105,2,1045,Q11 042,Ông Ích Khiêm,10.765737,106.645157,Quận 11,,Trụ dừng,Ông Ích Khiêm,Đang khai thác
105,2,3580,Q11 057,Chợ Chim Xanh,10.766184,106.647903,Quận 11,,Trụ dừng,Bình Thới,Đang khai thác
105,2,3581,Q11 058,UBND Phường 11,10.767647,106.650139,Quận 11,,Trụ dừng,Bình Thới,Đang khai thác
105,2,2833,Q11 054,Đường Nguyễn Thị Nhỏ,10.770221,106.652672,Quận 11,,Nhà chờ,Nguyễn Thị Nhỏ,Đang khai thác
105,2,2836,Q11 052,Coopmart Phú Thọ,10.771025,106.653313,Quận 11,,Nhà chờ,Lữ Gia,Đang khai thác
105,2,2838,Q11 053,Nhà thi đấu Phú Thọ,10.770303,106.657303,Quận 11,,Nhà chờ,Lữ Gia,Đang khai thác
105,2,900,Q10 059,Bệnh viện Trưng Vương,10.770922,106.658913,Quận 10,,Nhà chờ,Tô Hiến Thành,Đang khai thác
105,2,898,Q10 058,Đại học Bách Khoa (cổng sau),10.773046,106.661057,Quận 10,,Nhà chờ,Tô Hiến Thành,Đang khai thác
105,2,902,Q10 057,Ngân hàng Quân Đội,10.775549,106.663017,Quận 10,,Trụ dừng,Tô Hiến Thành,Đang khai thác
105,2,2835,Q10 066,Quán Hoàng Ty,10.775075,106.66407,Quận 10,,Trụ dừng,Thành Thái,Đang khai thác
105,2,2837,Q10 067,Bệnh viện 115,10.77382,106.664554,Quận 10,,Trụ dừng,Thành Thái,Đang khai thác
105,2,2840,Q10 068,Nhà thờ Đồng Tiến,10.770474,106.665863,Quận 10,,Nhà chờ,Thành Thái,Đang khai thác
105,2,1397,Q10 031,Bệnh viện Nhi Đồng 1,10.767765,106.67038,Quận 10,,Trụ dừng,Lý Thái Tổ,Đang khai thác
105,2,1398,Q10 032,Chợ Phường 10,10.767623,106.673357,Quận 10,,Trụ dừng,Lý Thái Tổ,Đang khai thác
105,2,1404,Q10 033,Ngã ba Hồ Thị Kỷ,10.767196,106.675572,Quận 10,,Trụ dừng,Lý Thái Tổ,Đang khai thác
105,2,1402,Q10 034,Nhà khách Chính Phủ,10.766522,106.677799,Quận 10,,Nhà chờ,Lý Thái Tổ,Đang khai thác
105,2,1406,Q10 035,Ngã sáu Cộng Hòa,10.76571,106.680449,Quận 10,,Nhà chờ,Lý Thái Tổ,Đang khai thác
105,2,287,Q1 088,Phạm Viết Chánh,10.766214,106.682533,Quận 1,,Nhà chờ,Nguyễn Thị Minh Khai,Đang khai thác
105,2,290,Q1 089,Bệnh viện Từ Dũ,10.768709,106.685024,Quận 1,,Nhà chờ,Nguyễn Thị Minh Khai,Đang khai thác
105,2,289,Q1 090,Tôn Thất Tùng,10.77185,106.687943,Quận 1,,Trụ dừng,Nguyễn Thị Minh Khai,Đang khai thác
105,2,1396,Q1 004,Trống Đồng,10.772345,106.691499,Quận 1,,Trụ dừng,Cách Mạng Tháng Tám,Đang khai thác
105,2,1401,Q1 122,Nguyễn Thị Nghĩa,10.770854,106.693588,Quận 1,Phường Bến Thành,Trụ dừng,Nguyễn Thị Nghĩa,Đang khai thác
105,2,7274,Q1 188,Nguyễn Thị Nghĩa,10.769952,106.693495,Quận 1,Phường Bến Thành,Trụ dừng,Lê Lai,Đang khai thác
105,2,7275,Q1 189,Tôn Thất Tùng,10.768761,106.690469,Quận 1,Phường Bến Thành,Trụ dừng,Lê Lai,Đang khai thác
105,2,35,BX 01,Bến xe buýt Sài Gòn,10.767676,106.689362,Quận 1,Phường Phạm Ngũ Lão,Bến xe,Lê Lai,Đang khai thác
106,211,1185,BX 62,Bến xe buýt Tân Quy,10.984251,106.578176,Huyện Củ Chi,,Bến xe,"Tỉnh lộ 8, Củ Chi",Đang khai thác
106,211,3485,QCCT069,Ngã tư Tân Quy,10.984835,106.576105,Huyện Củ Chi,Xã Trung An,Trụ dừng,Tỉnh lộ 15 Củ Chi,Đang khai thác
106,211,3489,QCCT070,"Chùa Pháp Bửu, cây xăng 63",10.988501,106.574593,Huyện Củ Chi,Xã Trung An,Trụ dừng,Tỉnh lộ 15 Củ Chi,Đang khai thác
106,211,3491,QCCT071,Công ty Hanwoong vina,10.991192,106.573455,Huyện Củ Chi,Xã Tân Thạnh Tây,Trụ dừng,Tỉnh lộ 15 Củ Chi,Đang khai thác
106,211,3487,QCCT072,Láng The,10.99512,106.571803,Huyện Củ Chi,,Trụ dừng,Tỉnh lộ 15 Củ Chi,Đang khai thác
106,211,3493,QCCT073,Cây xăng Minh Tân 2,10.999596,106.569936,Huyện Củ Chi,Xã Trung An,Trụ dừng,Tỉnh lộ 15 Củ Chi,Đang khai thác
106,211,3488,QCCT074,Cầu Bến Nẩy,11.011555,106.563773,Huyện Củ Chi,Xã Phú Hòa Đông,Trụ dừng,Tỉnh lộ 15 Củ Chi,Đang khai thác
106,211,3490,QCCT075,Hoa viên Vườn Hồng,11.01775,106.563515,Huyện Củ Chi,,Trụ dừng,Tỉnh lộ 15 Củ Chi,Đang khai thác
106,211,3494,QCCT076,Trường tiểu học Phú Hòa Đông 1,11.021206,106.563869,Huyện Củ Chi,Xã Phú Hòa Đông,Nhà chờ,Tỉnh lộ 15,Đang khai thác
106,211,3492,QCCT077,"Chợ, nhà thờ Phú Hòa Đông",11.027588,106.565022,Huyện Củ Chi,Xã Phú Hòa Đông,Trụ dừng,Tỉnh lộ 15,Đang khai thác
106,211,3495,QCCT078,Cây xăng Tài Lộc,11.037597,106.55925,Huyện Củ Chi,Xã Phú Hòa Đông,Trụ dừng,Tỉnh lộ 15,Đang khai thác
106,211,3497,QCCT079,Trường tiểu học Phú Hòa Đông 2,11.039919,106.556,Huyện Củ Chi,Xã Phú Hòa Đông,Nhà chờ,Tỉnh lộ 15 Củ Chi,Đang khai thác
106,211,3496,QCCT080,Bãi Cát,11.04292,106.551831,Huyện Củ Chi,Xã Phú Hòa Đông,Nhà chờ,Tỉnh lộ 15,Đang khai thác
106,211,3499,QCCT081,Nông trường Phạm Văn Cội,11.045,106.548677,Huyện Củ Chi,Xã Nhuận Đức,Nhà chờ,Tỉnh lộ 15,Đang khai thác
106,211,3498,QCCT082,Dốc Mít - Chen - Lin,11.04759,106.544632,Huyện Củ Chi,Xã Nhuận Đức,Nhà chờ,Tỉnh lộ 15,Đang khai thác
106,211,3500,QCCT083,Văn phòng Ấp Bến Đình,11.051734,106.538383,Huyện Củ Chi,Xã Nhuận Đức,Nhà chờ,Tỉnh lộ 15,Đang khai thác
106,211,3502,QCCT084,Cây xăng Tân Phong,11.057183,106.531484,Huyện Củ Chi,Xã Nhuận Đức,Trụ dừng,Tỉnh lộ 15,Đang khai thác
106,211,3501,QCCT085,Địa đạo Bến Đình,11.06216,106.529114,Huyện Củ Chi,Xã Nhuận Đức,Nhà chờ,Tỉnh lộ 15,Đang khai thác
106,211,3503,QCCT086,Trường Thiếu Sinh Quân,11.069613,106.522697,Huyện Củ Chi,Xã Nhuận Đức,Nhà chờ,Tỉnh lộ 15,Đang khai thác
106,211,3505,QCCT087,"Chùa Hoàng Linh, Ấp văn hóa Bến Mương",11.080515,106.516449,Huyện Củ Chi,,Trụ dừng,Tỉnh lộ 15,Đang khai thác
106,211,3504,QCCT088,Cây xăng số 5,11.085133,106.515149,Huyện Củ Chi,Xã An Nhơn Tây,Trụ dừng,Tỉnh lộ 15,Đang khai thác
106,211,3506,QCCT089,Nhà văn hóa Cụm An Nhơn Tây,11.089071,106.514109,Huyện Củ Chi,Xã An Nhơn Tây,Trụ dừng,Tỉnh lộ 15,Đang khai thác
106,211,3507,QCCT090,Cạnh Nghĩa trang Liệt sĩ huyện Củ Chi,11.094219,106.512773,Huyện Củ Chi,Xã An Nhơn Tây,Trụ dừng,Tỉnh lộ 15,Đang khai thác
106,211,3510,QCCT091,Nghĩa trang Liệt sĩ huyện Củ Chi,11.098246,106.51104,Huyện Củ Chi,,Trụ dừng,Tỉnh lộ 15,Đang khai thác
106,211,3509,QCCT092,"Quán Phú Yên, Đường 787",11.105137,106.508696,Huyện Củ Chi,Xã An Phú,Trụ dừng,Tỉnh lộ 15,Đang khai thác
106,211,3512,QCCT093,Ủy ban nhân dân xã An Phú,11.110832,106.506625,Huyện Củ Chi,Xã An Phú,Nhà chờ,Tỉnh lộ 15,Đang khai thác
106,211,3508,QCCT094,Công ty bò sữa An Phú,11.11658,106.501282,Huyện Củ Chi,Xã An Phú,Trụ dừng,Tỉnh lộ 15,Đang khai thác
106,211,3513,QCCT095,Làng nghề Một Thoáng Việt Nam,11.120286,106.497527,Huyện Củ Chi,Xã An Phú,Trụ dừng,Tỉnh lộ 15,Đang khai thác
106,211,3511,QCCT096,Trường học An Phú,11.12396,106.493837,Huyện Củ Chi,Xã An Phú,Trụ dừng,Tỉnh lộ 15,Đang khai thác
106,211,3517,QCCT097,Ngã 3 Cây Gõ,11.129329,106.486482,Huyện Củ Chi,Xã An Phú,Trụ dừng,Tỉnh lộ 15,Đang khai thác
106,211,3514,QCCT098,Ngã 3 Nguyễn Thị Rành,11.129555,106.484068,Huyện Củ Chi,Xã Phú Mỹ Hưng,Trụ dừng,Tỉnh lộ 15,Đang khai thác
106,211,3515,QCCT099,ngã 3 xã Phú Mỹ Hưng,11.131771,106.479084,Huyện Củ Chi,Xã Phú Mỹ Hưng,Trụ dừng,Tỉnh lộ 15 Củ Chi,Đang khai thác
106,211,3518,QCCT100,Cầu Thai Thai,11.13984,106.472856,Huyện Củ Chi,Xã Phú Mỹ Hưng,Trụ dừng,Tỉnh lộ 15,Đang khai thác
106,211,3520,QCCT101,Ngã 3 tỉnh lộ 6,11.143235,106.469112,Huyện Củ Chi,Xã Phú Mỹ Hưng,Trụ dừng,Tỉnh lộ 15,Đang khai thác
106,211,9464,HCC 364,Ấp Phú Hiệp,11.144703,106.467165,Huyện Củ Chi,Xã An Nhơn Tây,Trụ dừng,Tỉnh lộ 15,Đang khai thác
106,211,3516,QCCT102,Ngã 3 Đền Bến Dược,11.149403,106.461033,Huyện Củ Chi,Xã Phú Mỹ Hưng,Trụ dừng,Tỉnh lộ 15,Đang khai thác
106,211,3522,BX 67,Bến xe buýt Bến Súc,11.154887,106.455696,Huyện Củ Chi,Xã Phú Mỹ Hưng,Bến xe,Tỉnh lộ 15,Đang khai thác
106,212,3522,BX 67,Bến xe buýt Bến Súc,11.154887,106.455696,Huyện Củ Chi,Xã Phú Mỹ Hưng,Bến xe,Tỉnh lộ 15,Đang khai thác
106,212,3536,QCCT103,Ngã 3 Đền Bến Dược,11.149482,106.460727,Huyện Củ Chi,Xã Phú Mỹ Hưng,Trụ dừng,Tỉnh lộ 15,Đang khai thác
106,212,9463,HCC 363,Ấp Phú Hiệp,11.144193,106.467658,Huyện Củ Chi,Xã An Nhơn Tây,Trụ dừng,Tỉnh lộ 15,Đang khai thác
106,212,3533,QCCT104,Ngã 3 tỉnh lộ 6,11.142477,106.469879,Huyện Củ Chi,,Trụ dừng,Tỉnh lộ 15,Đang khai thác
106,212,3534,QCCT105,Cầu Thai Thai,11.138829,106.473699,Huyện Củ Chi,Xã Phú Mỹ Hưng,Trụ dừng,Tỉnh lộ 15,Đang khai thác
106,212,3538,QCCT106,Ngã 3 xã Phú Mỹ Hưng,11.130334,106.479959,Huyện Củ Chi,Xã Phú Mỹ Hưng,Trụ dừng,Tỉnh lộ 15,Đang khai thác
106,212,3537,QCCT107,Ngã 3 Nguyễn Thị Rành,11.129481,106.483719,Huyện Củ Chi,Xã Phú Mỹ Hưng,Trụ dừng,Tỉnh lộ 15,Đang khai thác
106,212,3539,QCCT108,Ngã 3 Cây Gõ,11.129171,106.486938,Huyện Củ Chi,,Trụ dừng,Tỉnh lộ 15 ,Đang khai thác
106,212,3540,QCCT109,Trường học An Phú,11.124365,106.493247,Huyện Củ Chi,Xã An Phú,Trụ dừng,Tỉnh lộ 15,Đang khai thác
106,212,3541,QCCT110,Làng nghề Một Thoáng Việt Nam,11.119728,106.49793,Huyện Củ Chi,Xã An Phú,Trụ dừng,Tỉnh lộ 15,Đang khai thác
106,212,3542,QCCT111,Công ty bò sữa An Phú,11.116207,106.501492,Huyện Củ Chi,Xã An Phú,Nhà chờ,Tỉnh lộ 15,Đang khai thác
106,212,3544,QCCT112,Ùy ban nhân dân xã An Phú,11.110448,106.506647,Huyện Củ Chi,Xã An Phú,Trụ dừng,Tỉnh lộ 15,Đang khai thác
106,212,3543,QCCT113,"Quán Phú Yên, đường 787",11.105517,106.508453,Huyện Củ Chi,Xã An Phú,Trụ dừng,Tỉnh lộ 15,Đang khai thác
106,212,3545,QCCT114,Nghĩa trang Liệt sĩ huyện Củ Chi,11.09852,106.510708,Huyện Củ Chi,Xã An Nhơn Tây,Trụ dừng,Tỉnh lộ 15,Đang khai thác
106,212,3546,QCCT115,Cạnh Nghĩa trang Liệt sĩ huyện Củ Chi,11.094503,106.512548,Huyện Củ Chi,,Trụ dừng,Tỉnh lộ 15,Đang khai thác
106,212,3547,QCCT116,Nhà văn hóa Cụm An Nhơn Tây,11.089467,106.513885,Huyện Củ Chi,Xã An Nhơn Tây,Trụ dừng,Tỉnh lộ 15,Đang khai thác
106,212,3548,QCCT117,Cây xăng số 5,11.0846,106.515137,Huyện Củ Chi,Xã An Nhơn Tây,Trụ dừng,Tỉnh lộ 15,Đang khai thác
106,212,3549,QCCT118,"Chùa Hoàng Linh, Ấp văn hóa Bến Mương",11.080667,106.516251,Huyện Củ Chi,Xã An Nhơn Tây,Trụ dừng,Tỉnh lộ 15,Đang khai thác
106,212,3551,QCCT119,Trường Thiếu Sinh Quân,11.070008,106.522059,Huyện Củ Chi,Xã Nhuận Đức,Nhà chờ,Tỉnh lộ 15,Đang khai thác
106,212,3550,QCCT120,Địa đạo Bến Đình,11.061469,106.529306,Huyện Củ Chi,Xã Nhuận Đức,Nhà chờ,Tỉnh lộ 15,Đang khai thác
106,212,3552,QCCT121,Cây xăng Tân Phong,11.056462,106.531699,Huyện Củ Chi,Xã Nhuận Đức,Nhà chờ,Tỉnh lộ 15,Đang khai thác
106,212,3553,QCCT122,Văn phòng Ấp Bến Đình,11.052055,106.537605,Huyện Củ Chi,Xã Nhuận Đức,Nhà chờ,Tỉnh lộ 15,Đang khai thác
106,212,3555,QCCT123,Dốc Mít - Chen - Lin,11.047691,106.544235,Huyện Củ Chi,Xã Nhuận Đức,Nhà chờ,Tỉnh lộ 15,Đang khai thác
106,212,3554,QCCT124,Nông trường Phạm Văn Cội,11.045105,106.548302,Huyện Củ Chi,,Trụ dừng,Tỉnh lộ 15,Đang khai thác
106,212,3556,QCCT125,Bãi Cát,11.042689,106.551949,Huyện Củ Chi,Xã Phú Hòa Đông,Nhà chờ,Tỉnh lộ 15,Đang khai thác
106,212,3557,QCCT126,Trường tiểu học Phú Hòa Đông 2,11.040093,106.555538,Huyện Củ Chi,Xã Phú Hòa Đông,Nhà chờ,Tỉnh lộ 15,Đang khai thác
106,212,3558,QCCT127,Cây xăng Tài Lộc,11.037245,106.559513,Huyện Củ Chi,Xã Phú Hòa Đông,Trụ dừng,Tỉnh lộ 15,Đang khai thác
106,212,3559,QCCT128,"Chợ, Nhà thờ Phú Hòa Đông",11.028725,106.565028,Huyện Củ Chi,Xã Phú Hòa Đông,Trụ dừng,Tỉnh lộ 15,Đang khai thác
106,212,3560,HCC 307,Trường Tiểu học Phú Hòa Đông 1,11.022754,106.563971,Huyện Củ Chi,Xã Phú Hòa Đông,Trụ dừng,Tỉnh lộ 15,Đang khai thác
106,212,3561,QCCT130,Hoa viên Vườn Hồng,11.018616,106.563419,Huyện Củ Chi,Xã Phú Hòa Đông,Trụ dừng,Tỉnh lộ 15,Đang khai thác
106,212,3563,QCCT131,Cầu Bến Nẩy,11.010854,106.563987,Huyện Củ Chi,Xã Phú Hòa Đông,Ô sơn,Tỉnh lộ 15 Củ Chi,Đang khai thác
106,212,3562,QCCT132,Cây xăng Minh Tân 2,10.999233,106.569952,Huyện Củ Chi,,Trụ dừng,Tỉnh lộ 15 Củ Chi,Đang khai thác
106,212,3564,QCCT133,Láng The,10.996558,106.571057,Huyện Củ Chi,Xã Trung An,Trụ dừng,Tỉnh lộ 15 Củ Chi,Đang khai thác
106,212,3565,QCCT134,Công ty Hanwoong vina,10.990949,106.573391,Huyện Củ Chi,Xã Phú Hòa Đông,Nhà chờ,Tỉnh lộ 15,Đang khai thác
106,212,8136,HCC 357,Tỉnh lộ 15,10.989312,106.574963,Huyện Củ Chi,Xã Trung An,Ô sơn,Phạm Thị Lòng (đường 458),Đang khai thác
106,212,8137,HCC 358,Giao lộ Phạm Thị Lòng - Nguyễn Thị Minh,10.989143,106.577704,Huyện Củ Chi,Xã Trung An,Ô sơn,Phạm Thị Lòng (đường 458),Đang khai thác
106,212,1185,BX 62,Bến xe buýt Tân Quy,10.984251,106.578176,Huyện Củ Chi,,Bến xe,"Tỉnh lộ 8, Củ Chi",Đang khai thác
107,1,732,BX 63,Bến xe Củ Chi,10.971617,106.482099,Huyện Củ Chi,,Bến xe,Quốc lộ 22,Đang khai thác
107,1,734,HCC 018,Bến xe Củ Chi,10.972533,106.480347,Huyện Củ Chi,,Nhà chờ,Quốc lộ 22,Đang khai thác
107,1,733,HCC 019,Bệnh viện Củ Chi,10.974756,106.475742,Huyện Củ Chi,Thị trấn Củ Chi,Trụ dừng,Quốc lộ 22,Đang khai thác
107,1,738,HCC 020,Trạm xăng,10.976133,106.473129,Huyện Củ Chi,,Ô sơn,Quốc lộ 22,Đang khai thác
107,1,735,HCC 021,Công ty phân bón Sinh hóa Củ Chi,10.978179,106.469455,Huyện Củ Chi,,Trụ dừng,Quốc lộ 22,Đang khai thác
107,1,7679,HCC 297,Ấp Bàu Tre,10.981133,106.4643,Huyện Củ Chi,Xã Phước Hiệp,Trụ dừng,Quốc lộ 22,Đang khai thác
107,1,741,HCC 022,Trạm xăng Phước Hiệp 1,10.98305,106.461232,Huyện Củ Chi,,Trụ dừng,Quốc lộ 22,Đang khai thác
107,1,7833,HCC 344,Đường số 606,10.984809,106.458421,Huyện Củ Chi,Xã Tân An Hội,Nhà chờ,Quốc lộ 22,Đang khai thác
107,1,736,HCC 023,Đối diện UBND xa Phước Hiệp,10.989707,106.451361,Huyện Củ Chi,Xã Phước Hiệp,Trụ dừng,Quốc lộ 22,Đang khai thác
107,1,743,HCC 024,Đối diện Trường Tiểu học Phước Hiệp,10.993424,106.447987,Huyện Củ Chi,Xã Phước Hiệp,Nhà chờ,Quốc lộ 22,Đang khai thác
107,1,737,HCC 025,Cây xăng Phước Thạnh,10.996789,106.445058,Huyện Củ Chi,Xã Phước Hiệp,Trụ dừng,Quốc lộ 22,Đang khai thác
107,1,7845,HCC 349,Đường 622,11.002719,106.436679,Huyện Củ Chi,Xã Phước Thạnh,Ô sơn,Quốc lộ 22,Đang khai thác
107,1,745,HCC 026,UBND xã Phước Thạnh,11.00463,106.431969,Huyện Củ Chi,Xã Phước Thạnh,Nhà chờ,Quốc lộ 22,Đang khai thác
107,1,739,QCCT028,Ngã tư Phước Thạnh,11.005767,106.428146,Huyện Củ Chi,Xã Phước Thạnh,Trụ dừng,Quốc lộ 22,Đang khai thác
107,1,7509,BXLT Tay Ninh,Bến xe Tây Ninh,11.309938,106.087836,Ngoại thành,,Bến xe,Trưng Nữ Vương,Đang khai thác
107,2,7509,BXLT Tay Ninh,Bến xe Tây Ninh,11.309938,106.087836,Ngoại thành,,Bến xe,Trưng Nữ Vương,Đang khai thác
107,2,790,HCC 028,Ngã tư Phước Thạnh,11.005567,106.428069,Huyện Củ Chi,Xã Phước Thạnh,Nhà chờ,Quốc lộ 22,Đang khai thác
107,2,783,HCC 029,Ủy Ban nhân dân Xã Phước Thạnh,11.004504,106.431647,Huyện Củ Chi,Xã Phước Thạnh,Trụ dừng,Quốc lộ 22,Đang khai thác
107,2,7844,HCC 348,Đường 622,11.002966,106.435756,Huyện Củ Chi,Xã Phước Thạnh,Ô sơn,Quốc lộ 22,Đang khai thác
107,2,7843,HCC 353,Cây xăng Phước Thạnh 2,10.998359,106.443239,Huyện Củ Chi,Xã Tân An Hội,Nhà chờ,Quốc lộ 22,Đang khai thác
107,2,784,HCC 030,ấp cây trôm,10.996617,106.44487,Huyện Củ Chi,Xã Phước Hiệp,Trụ dừng,Quốc lộ 22,Đang khai thác
107,2,792,HCC 031,Trường Tiểu học Phước Hiệp,10.992698,106.448362,Huyện Củ Chi,Xã Phước Hiệp,Nhà chờ,Quốc lộ 22,Đang khai thác
107,2,794,HCC 032,UBND xã Phước Hiệp,10.989567,106.451263,Huyện Củ Chi,,Nhà chờ,Quốc lộ 22,Đang khai thác
107,2,7836,HCC 347,Cây xăng Phước Thạnh 3,10.986336,106.455658,Huyện Củ Chi,Xã Phước Hiệp,Ô sơn,Quốc lộ 22,Đang khai thác
107,2,7834,HCC 345,Đường số 606,10.984662,106.458238,Huyện Củ Chi,Xã Tân An Hội,Nhà chờ,Quốc lộ 22,Đang khai thác
107,2,785,HCC 033,Cây xăng Tài Lộc 3,10.982855,106.461033,Huyện Củ Chi,Xã Phước Hiệp,Nhà chờ,Quốc lộ 22,Đang khai thác
107,2,7680,HCC 298,Ấp Bàu Tre,10.981049,106.463742,Huyện Củ Chi,Xã Phước Hiệp,Trụ dừng,Quốc lộ 22,Đang khai thác
107,2,796,HCC 034,Công ty phân bón sinh hóa Củ Chi,10.977784,106.469632,Huyện Củ Chi,,Nhà chờ,Quốc lộ 22,Đang khai thác
107,2,787,HCC 035,Ngã 3 Nguyễn Thị Rành,10.976109,106.472717,Huyện Củ Chi,Xã Tân An Hội,Nhà chờ,Quốc lộ 22,Đang khai thác
107,2,788,HCC 036,Bệnh viện Củ Chi,10.974061,106.476579,Huyện Củ Chi,Xã Tân An Hội,Trụ dừng,Quốc lộ 22,Đang khai thác
107,2,9465,HCC 365,Bệnh viện đa khoa khu vực Củ Chi,10.973308,106.478097,Huyện Củ Chi,Xã Tân An Hội,Trụ dừng,Phan Văn Khải,Đang khai thác
107,2,963,HCC 037,Bến xe Củ Chi,10.972091,106.48049,Huyện Củ Chi,Thị trấn Củ Chi,Trụ dừng,Quốc lộ 22,Đang khai thác
107,2,7617,HCC 279,chợ Củ Chi,10.970495,106.482453,Huyện Củ Chi,Thị trấn Củ Chi,Nhà chờ,Quốc lộ 22,Đang khai thác
107,2,732,BX 63,Bến xe Củ Chi,10.971617,106.482099,Huyện Củ Chi,,Bến xe,Quốc lộ 22,Đang khai thác
108,1,732,BX 63,Bến xe Củ Chi,10.971617,106.482099,Huyện Củ Chi,,Bến xe,Quốc lộ 22,Đang khai thác
108,1,734,HCC 018,Bến xe Củ Chi,10.972533,106.480347,Huyện Củ Chi,,Nhà chờ,Quốc lộ 22,Đang khai thác
108,1,733,HCC 019,Bệnh viện Củ Chi,10.974756,106.475742,Huyện Củ Chi,Thị trấn Củ Chi,Trụ dừng,Quốc lộ 22,Đang khai thác
108,1,738,HCC 020,Trạm xăng,10.976133,106.473129,Huyện Củ Chi,,Ô sơn,Quốc lộ 22,Đang khai thác
108,1,735,HCC 021,Công ty phân bón Sinh hóa Củ Chi,10.978179,106.469455,Huyện Củ Chi,,Trụ dừng,Quốc lộ 22,Đang khai thác
108,1,7679,HCC 297,Ấp Bàu Tre,10.981133,106.4643,Huyện Củ Chi,Xã Phước Hiệp,Trụ dừng,Quốc lộ 22,Đang khai thác
108,1,741,HCC 022,Trạm xăng Phước Hiệp 1,10.98305,106.461232,Huyện Củ Chi,,Trụ dừng,Quốc lộ 22,Đang khai thác
108,1,7833,HCC 344,Đường số 606,10.984809,106.458421,Huyện Củ Chi,Xã Tân An Hội,Nhà chờ,Quốc lộ 22,Đang khai thác
108,1,736,HCC 023,Đối diện UBND xa Phước Hiệp,10.989707,106.451361,Huyện Củ Chi,Xã Phước Hiệp,Trụ dừng,Quốc lộ 22,Đang khai thác
108,1,743,HCC 024,Đối diện Trường Tiểu học Phước Hiệp,10.993424,106.447987,Huyện Củ Chi,Xã Phước Hiệp,Nhà chờ,Quốc lộ 22,Đang khai thác
108,1,737,HCC 025,Cây xăng Phước Thạnh,10.996789,106.445058,Huyện Củ Chi,Xã Phước Hiệp,Trụ dừng,Quốc lộ 22,Đang khai thác
108,1,7845,HCC 349,Đường 622,11.002719,106.436679,Huyện Củ Chi,Xã Phước Thạnh,Ô sơn,Quốc lộ 22,Đang khai thác
108,1,745,HCC 026,UBND xã Phước Thạnh,11.00463,106.431969,Huyện Củ Chi,Xã Phước Thạnh,Nhà chờ,Quốc lộ 22,Đang khai thác
108,1,739,QCCT028,Ngã tư Phước Thạnh,11.005767,106.428146,Huyện Củ Chi,Xã Phước Thạnh,Trụ dừng,Quốc lộ 22,Đang khai thác
108,1,8102,BX 70-2,Khu du lịch Núi Bà Đen,11.362073,106.168,Ngoại thành,,Bến xe,Bời Lời,Đang khai thác
108,2,8102,BX 70-2,Khu du lịch Núi Bà Đen,11.362073,106.168,Ngoại thành,,Bến xe,Bời Lời,Đang khai thác
108,2,790,HCC 028,Ngã tư Phước Thạnh,11.005567,106.428069,Huyện Củ Chi,Xã Phước Thạnh,Nhà chờ,Quốc lộ 22,Đang khai thác
108,2,783,HCC 029,Ủy Ban nhân dân Xã Phước Thạnh,11.004504,106.431647,Huyện Củ Chi,Xã Phước Thạnh,Trụ dừng,Quốc lộ 22,Đang khai thác
108,2,7844,HCC 348,Đường 622,11.002966,106.435756,Huyện Củ Chi,Xã Phước Thạnh,Ô sơn,Quốc lộ 22,Đang khai thác
108,2,7843,HCC 353,Cây xăng Phước Thạnh 2,10.998359,106.443239,Huyện Củ Chi,Xã Tân An Hội,Nhà chờ,Quốc lộ 22,Đang khai thác
108,2,784,HCC 030,ấp cây trôm,10.996617,106.44487,Huyện Củ Chi,Xã Phước Hiệp,Trụ dừng,Quốc lộ 22,Đang khai thác
108,2,792,HCC 031,Trường Tiểu học Phước Hiệp,10.992698,106.448362,Huyện Củ Chi,Xã Phước Hiệp,Nhà chờ,Quốc lộ 22,Đang khai thác
108,2,794,HCC 032,UBND xã Phước Hiệp,10.989567,106.451263,Huyện Củ Chi,,Nhà chờ,Quốc lộ 22,Đang khai thác
108,2,7836,HCC 347,Cây xăng Phước Thạnh 3,10.986336,106.455658,Huyện Củ Chi,Xã Phước Hiệp,Ô sơn,Quốc lộ 22,Đang khai thác
108,2,7834,HCC 345,Đường số 606,10.984662,106.458238,Huyện Củ Chi,Xã Tân An Hội,Nhà chờ,Quốc lộ 22,Đang khai thác
108,2,785,HCC 033,Cây xăng Tài Lộc 3,10.982855,106.461033,Huyện Củ Chi,Xã Phước Hiệp,Nhà chờ,Quốc lộ 22,Đang khai thác
108,2,7680,HCC 298,Ấp Bàu Tre,10.981049,106.463742,Huyện Củ Chi,Xã Phước Hiệp,Trụ dừng,Quốc lộ 22,Đang khai thác
108,2,796,HCC 034,Công ty phân bón sinh hóa Củ Chi,10.977784,106.469632,Huyện Củ Chi,,Nhà chờ,Quốc lộ 22,Đang khai thác
108,2,787,HCC 035,Ngã 3 Nguyễn Thị Rành,10.976109,106.472717,Huyện Củ Chi,Xã Tân An Hội,Nhà chờ,Quốc lộ 22,Đang khai thác
108,2,788,HCC 036,Bệnh viện Củ Chi,10.974061,106.476579,Huyện Củ Chi,Xã Tân An Hội,Trụ dừng,Quốc lộ 22,Đang khai thác
108,2,9465,HCC 365,Bệnh viện đa khoa khu vực Củ Chi,10.973308,106.478097,Huyện Củ Chi,Xã Tân An Hội,Trụ dừng,Phan Văn Khải,Đang khai thác
108,2,963,HCC 037,Bến xe Củ Chi,10.972091,106.48049,Huyện Củ Chi,Thị trấn Củ Chi,Trụ dừng,Quốc lộ 22,Đang khai thác
108,2,7617,HCC 279,chợ Củ Chi,10.970495,106.482453,Huyện Củ Chi,Thị trấn Củ Chi,Nhà chờ,Quốc lộ 22,Đang khai thác
108,2,732,BX 63,Bến xe Củ Chi,10.971617,106.482099,Huyện Củ Chi,,Bến xe,Quốc lộ 22,Đang khai thác
11,1,732,BX 63,Bến xe Củ Chi,10.971617,106.482099,Huyện Củ Chi,,Bến xe,Quốc lộ 22,Đang khai thác
11,1,734,HCC 018,Bến xe Củ Chi,10.972533,106.480347,Huyện Củ Chi,,Nhà chờ,Quốc lộ 22,Đang khai thác
11,1,733,HCC 019,Bệnh viện Củ Chi,10.974756,106.475742,Huyện Củ Chi,Thị trấn Củ Chi,Trụ dừng,Quốc lộ 22,Đang khai thác
11,1,738,HCC 020,Trạm xăng,10.976133,106.473129,Huyện Củ Chi,,Ô sơn,Quốc lộ 22,Đang khai thác
11,1,735,HCC 021,Công ty phân bón Sinh hóa Củ Chi,10.978179,106.469455,Huyện Củ Chi,,Trụ dừng,Quốc lộ 22,Đang khai thác
11,1,7679,HCC 297,Ấp Bàu Tre,10.981133,106.4643,Huyện Củ Chi,Xã Phước Hiệp,Trụ dừng,Quốc lộ 22,Đang khai thác
11,1,741,HCC 022,Trạm xăng Phước Hiệp 1,10.98305,106.461232,Huyện Củ Chi,,Trụ dừng,Quốc lộ 22,Đang khai thác
11,1,7833,HCC 344,Đường số 606,10.984809,106.458421,Huyện Củ Chi,Xã Tân An Hội,Nhà chờ,Quốc lộ 22,Đang khai thác
11,1,736,HCC 023,Đối diện UBND xa Phước Hiệp,10.989707,106.451361,Huyện Củ Chi,Xã Phước Hiệp,Trụ dừng,Quốc lộ 22,Đang khai thác
11,1,743,HCC 024,Đối diện Trường Tiểu học Phước Hiệp,10.993424,106.447987,Huyện Củ Chi,Xã Phước Hiệp,Nhà chờ,Quốc lộ 22,Đang khai thác
11,1,737,HCC 025,Cây xăng Phước Thạnh,10.996789,106.445058,Huyện Củ Chi,Xã Phước Hiệp,Trụ dừng,Quốc lộ 22,Đang khai thác
11,1,7845,HCC 349,Đường 622,11.002719,106.436679,Huyện Củ Chi,Xã Phước Thạnh,Ô sơn,Quốc lộ 22,Đang khai thác
11,1,745,HCC 026,UBND xã Phước Thạnh,11.00463,106.431969,Huyện Củ Chi,Xã Phước Thạnh,Nhà chờ,Quốc lộ 22,Đang khai thác
11,1,739,QCCT028,Ngã tư Phước Thạnh,11.005767,106.428146,Huyện Củ Chi,Xã Phước Thạnh,Trụ dừng,Quốc lộ 22,Đang khai thác
11,1,746,HCC 144,Chợ Phước Thạnh,11.005048,106.426697,Huyện Củ Chi,Xã Phước Thạnh,Ô sơn,Tỉnh lộ 7,Đang khai thác
11,1,7707,HCC 282,Trường THCS Phước Thạnh,11.004225,106.424856,Huyện Củ Chi,Xã Phước Thạnh,Nhà chờ,Tỉnh lộ 7,Đang khai thác
11,1,789,HCC 102,Trường Quang Trung,11.0029,106.423553,Huyện Củ Chi,,Trụ dừng,Tỉnh lộ 7 Củ Chi,Đang khai thác
11,1,742,HCC 146,Cây xăng petrolimet 59,11.000014,106.422159,Huyện Củ Chi,,Trụ dừng,Tỉnh lộ 7,Đang khai thác
11,1,9583,HCC 386,Cầu Bà Đập,10.99541,106.418504,Huyện Củ Chi,Xã Thái Mỹ,Ô sơn,Tỉnh lộ 7,Đang khai thác
11,1,748,HCC 147,Cổng chào Xã Thái Mỹ,10.993867,106.415817,Huyện Củ Chi,,Trụ dừng,Tỉnh lộ 7,Đang khai thác
11,1,750,HCC 148,Hẻm 582,10.992703,106.413944,Huyện Củ Chi,,Trụ dừng,Tỉnh lộ 7,Đang khai thác
11,1,744,HCC 149,Giáo xứ Mỹ Khánh,10.990917,106.409935,Huyện Củ Chi,,Trụ dừng,Tỉnh lộ 7,Đang khai thác
11,1,752,HCC 150,Trường mầm non Thái Mỹ,10.991251,106.405235,Huyện Củ Chi,,Trụ dừng,Tỉnh lộ 7,Đang khai thác
11,1,5789,HCC 1510,Trường Trung học phổ thông Nguyễn Văn Xơ,10.991364,106.402136,Huyện Củ Chi,Xã Thái Mỹ,Trụ dừng,Tỉnh lộ 7 ,Đang khai thác
11,1,7706,HCC 281,ĐD Trường Tiểu học Thái Mỹ,10.991307,106.39967,Huyện Củ Chi,Xã Thái Mỹ,Nhà chờ,Tỉnh lộ 7,Đang khai thác
11,1,754,HCC 152,Ủy Ban nhân dân Xã Thái Mỹ,10.991328,106.398463,Huyện Củ Chi,,Trụ dừng,Tỉnh lộ 7,Đang khai thác
11,1,756,HCC 153,Ấp Bình Thượng 1,10.991302,106.393857,Huyện Củ Chi,Xã Thái Mỹ,Trụ dừng,Tỉnh lộ 7,Đang khai thác
11,1,747,HCC 154,Trương Thị Kiện,10.991721,106.390312,Huyện Củ Chi,Xã Thái Mỹ,Trụ dừng,Tỉnh lộ 7,Đang khai thác
11,1,749,HCC 155,Ngã 3 Ông Cống,10.992471,106.385681,Huyện Củ Chi,Xã Thái Mỹ,Trụ dừng,Tỉnh lộ 7 ,Đang khai thác
11,1,9584,HCC 388,Số 205,10.993078,106.381908,Huyện Củ Chi,Xã Thái Mỹ,Ô sơn,Tỉnh lộ 7,Đang khai thác
11,1,758,HCC 156,đường 687,10.99353,106.379446,Huyện Củ Chi,Xã Thái Mỹ,Trụ dừng,Tỉnh lộ 7,Đang khai thác
11,1,751,HCC 157,Trương Thị Kiện,10.993877,106.37443,Huyện Củ Chi,Xã Thái Mỹ,Trụ dừng,Tỉnh lộ 7,Đang khai thác
11,1,760,HCC 158,Ngã 3 Vuông Lầu,10.99363,106.372118,Huyện Củ Chi,Xã Thái Mỹ,Trụ dừng,Tỉnh lộ 7,Đang khai thác
11,1,9585,HCC 390,QLN2,10.992226,106.369946,Huyện Củ Chi,Xã Thái Mỹ,Ô sơn,Tỉnh lộ 7,Đang khai thác
11,1,9586,HCC 392,Cầu Tân Thái,10.985563,106.365555,Huyện Củ Chi,Xã Thái Mỹ,Ô sơn,Tỉnh Lộ 7,Đang khai thác
11,1,9582,BX 100-1,Điểm đầu cuối cầu Tân Thái (điều chỉnh),10.98534,106.365588,Huyện Củ Chi,Xã Thái Mỹ,Bến xe,Tỉnh lộ 7,Đang khai thác
11,2,9582,BX 100-1,Điểm đầu cuối cầu Tân Thái (điều chỉnh),10.98534,106.365588,Huyện Củ Chi,Xã Thái Mỹ,Bến xe,Tỉnh lộ 7,Đang khai thác
11,2,9590,HCC 393,Cầu Tân Thái,10.985352,106.365529,Huyện Củ Chi,Xã Thái Mỹ,Ô sơn,Tỉnh lộ 7,Đang khai thác
11,2,9589,HCC 391,QLN2,10.992101,106.369986,Huyện Củ Chi,Xã Thái Mỹ,Ô sơn,Tỉnh Lộ 7,Đang khai thác
11,2,5777,HCC 089,Ngã ba Vuông Lầu,10.993435,106.372075,Huyện Củ Chi,Thị trấn Củ Chi,Trụ dừng,Tỉnh lộ 7,Đang khai thác
11,2,772,HCC 090,Trương Thị Kiện,10.993703,106.375471,Huyện Củ Chi,,Trụ dừng,Tỉnh lộ 7,Đang khai thác
11,2,774,HCC 091,đường 687,10.993266,106.379929,Huyện Củ Chi,Xã Thái Mỹ,Trụ dừng,Tỉnh lộ 7,Đang khai thác
11,2,9588,HCC 389,số 218,10.992954,106.38204,Huyện Củ Chi,Xã Thái Mỹ,Ô sơn,Tỉnh lộ 7,Đang khai thác
11,2,773,HCC 092,Ngã 3 Ông Cống,10.992433,106.3853,Huyện Củ Chi,Xã Thái Mỹ,Trụ dừng,Tỉnh lộ 7,Đang khai thác
11,2,5778,HCC 093,Trương Thị Kiện,10.991676,106.38952,Huyện Củ Chi,Xã Thái Mỹ,Trụ dừng,Tỉnh lộ 7,Đang khai thác
11,2,775,HCC 094,Ấp Bình Thượng 1,10.991186,106.393275,Huyện Củ Chi,Xã Thái Mỹ,Trụ dừng,Tỉnh lộ 7,Đang khai thác
11,2,777,HCC 095,Ủy Ban nhân dân Xã Thái Mỹ,10.991118,106.397889,Huyện Củ Chi,Xã Thái Mỹ,Trụ dừng,Tỉnh lộ 7,Đang khai thác
11,2,7705,HCC 280,Trường Tiểu học Thái Mỹ,10.991207,106.399986,Huyện Củ Chi,Xã Thái Mỹ,Nhà chờ,Tỉnh lộ 7,Đang khai thác
11,2,5779,HCC 096,Trường trung học phổ thông Nguyễn Văn Xơ,10.991139,106.402609,Huyện Củ Chi,Xã Thái Mỹ,Trụ dừng,Tỉnh lộ 7,Đang khai thác
11,2,778,HCC 097,Trường Mầm non Thái Mỹ,10.991097,106.405458,Huyện Củ Chi,,Trụ dừng,Tỉnh lộ 7,Đang khai thác
11,2,780,HCC 098,Giáo xứ Mỹ Khánh,10.990949,106.411257,Huyện Củ Chi,,Trụ dừng,Tỉnh lộ 7,Đang khai thác
11,2,779,HCC 099,Hẻm 582,10.992892,106.414518,Huyện Củ Chi,Xã Thái Mỹ,Trụ dừng,Tỉnh lộ 7,Đang khai thác
11,2,786,HCC 100,Cổng chào Xã Thái Mỹ,10.994119,106.416675,Huyện Củ Chi,,Trụ dừng,Tỉnh lộ 7,Đang khai thác
11,2,9587,HCC 387,Cầu Bà Đập,10.995547,106.418944,Huyện Củ Chi,Xã Thái Mỹ,Ô sơn,Tỉnh Lộ 7,Đang khai thác
11,2,781,HCC 101,Cây xăng petrolimet 59,11.000223,106.422581,Huyện Củ Chi,,Trụ dừng,Tỉnh lộ 7,Đang khai thác
11,2,740,QCCT193,Trường THPT Quang Trung,11.00323,106.423866,Huyện Củ Chi,Xã Phước Thạnh,Trụ dừng,Tỉnh lộ 7 Củ Chi,Đang khai thác
11,2,782,HCC 103,Chợ Phước Thạnh,11.004793,106.426465,Huyện Củ Chi,Xã Phước Thạnh,Trụ dừng,Tỉnh lộ 7,Đang khai thác
11,2,790,HCC 028,Ngã tư Phước Thạnh,11.005567,106.428069,Huyện Củ Chi,Xã Phước Thạnh,Nhà chờ,Quốc lộ 22,Đang khai thác
11,2,783,HCC 029,Ủy Ban nhân dân Xã Phước Thạnh,11.004504,106.431647,Huyện Củ Chi,Xã Phước Thạnh,Trụ dừng,Quốc lộ 22,Đang khai thác
11,2,7844,HCC 348,Đường 622,11.002966,106.435756,Huyện Củ Chi,Xã Phước Thạnh,Ô sơn,Quốc lộ 22,Đang khai thác
